<?xml version="1.0" encoding="utf-8"?>
<ArrayOfVolunteer xmlns:xsi="http://www.w3.org/2001/XMLSchema-instance" xmlns:xsd="http://www.w3.org/2001/XMLSchema">
  <Volunteer>
    <Id>274862791</Id>
    <FullName>John Doe</FullName>
    <Phone>052-1234567</Phone>
    <Email>john.doe@example.com</Email>
    <Password>password123</Password>
    <FullAddress>Main Street 1, Tel Aviv</FullAddress>
    <Latitude>-45.27</Latitude>
    <Longitude>13.45</Longitude>
    <Role>DISTRICTMANAGER</Role>
    <Active>false</Active>
    <MaxDistance>480</MaxDistance>
    <TypeOfDistance>AERIALDISTANCE</TypeOfDistance>
  </Volunteer>
  <Volunteer>
    <Id>286885908</Id>
    <FullName>Jane Smith</FullName>
    <Phone>053-2345678</Phone>
    <Email>jane.smith@example.com</Email>
    <Password>abc123</Password>
    <FullAddress>Har 2, Jerusalem</FullAddress>
    <Latitude>32.41</Latitude>
    <Longitude>-118.65</Longitude>
    <Role>VOLUNTEER</Role>
    <Active>true</Active>
    <MaxDistance>4939</MaxDistance>
    <TypeOfDistance>AERIALDISTANCE</TypeOfDistance>
  </Volunteer>
  <Volunteer>
    <Id>341058154</Id>
    <FullName>Michael Johnson</FullName>
    <Phone>054-3456789</Phone>
    <Email>michael.johnson@example.com</Email>
    <Password>qwerty123</Password>
    <FullAddress>Independence 45, Haifa</FullAddress>
    <Latitude>-12.55</Latitude>
    <Longitude>23.53</Longitude>
    <Role>VOLUNTEER</Role>
    <Active>true</Active>
    <MaxDistance>8182</MaxDistance>
    <TypeOfDistance>AERIALDISTANCE</TypeOfDistance>
  </Volunteer>
  <Volunteer>
    <Id>208183554</Id>
    <FullName>Emily Davis</FullName>
    <Phone>055-4567890</Phone>
    <Email>emily.davis@example.com</Email>
    <Password>letmein2024</Password>
    <FullAddress>Galil 12, Petah Tikva</FullAddress>
    <Latitude>57.8</Latitude>
    <Longitude>89.45</Longitude>
    <Role>DISTRICTMANAGER</Role>
    <Active>true</Active>
    <MaxDistance>9959</MaxDistance>
    <TypeOfDistance>AERIALDISTANCE</TypeOfDistance>
  </Volunteer>
  <Volunteer>
    <Id>213143972</Id>
    <FullName>Chris Brown</FullName>
    <Phone>056-5678901</Phone>
    <Email>chris.brown@example.com</Email>
    <Password>welcome1</Password>
    <FullAddress>Harbor 8, Ashdod</FullAddress>
    <Latitude>29.82</Latitude>
    <Longitude>-62.34</Longitude>
    <Role>VOLUNTEER</Role>
    <Active>true</Active>
    <MaxDistance>1645</MaxDistance>
    <TypeOfDistance>AERIALDISTANCE</TypeOfDistance>
  </Volunteer>
  <Volunteer>
    <Id>205476168</Id>
    <FullName>Jessica Taylor</FullName>
    <Phone>057-6789012</Phone>
    <Email>jessica.taylor@example.com</Email>
    <Password>1234abcd</Password>
    <FullAddress>Hadar 34, Ramat Gan</FullAddress>
    <Latitude>-20.94</Latitude>
    <Longitude>31.22</Longitude>
    <Role>VOLUNTEER</Role>
    <Active>true</Active>
    <MaxDistance>12135</MaxDistance>
    <TypeOfDistance>AERIALDISTANCE</TypeOfDistance>
  </Volunteer>
  <Volunteer>
    <Id>206438857</Id>
    <FullName>David Wilson</FullName>
    <Phone>058-7890123</Phone>
    <Email>david.wilson@example.com</Email>
    <Password>iloveyou99</Password>
    <FullAddress>Zamir 56, Netanya</FullAddress>
    <Latitude>48.16</Latitude>
    <Longitude>-15.78</Longitude>
    <Role>VOLUNTEER</Role>
    <Active>false</Active>
    <MaxDistance>8760</MaxDistance>
    <TypeOfDistance>AERIALDISTANCE</TypeOfDistance>
  </Volunteer>
  <Volunteer>
    <Id>233319219</Id>
    <FullName>Sophia Moore</FullName>
    <Phone>059-8901234</Phone>
    <Email>sophia.moore@example.com</Email>
    <Password>admin123</Password>
    <FullAddress>Yarkon 10, Holon</FullAddress>
    <Latitude>-38.69</Latitude>
    <Longitude>78.64</Longitude>
    <Role>VOLUNTEER</Role>
    <Active>false</Active>
    <MaxDistance>6802</MaxDistance>
    <TypeOfDistance>AERIALDISTANCE</TypeOfDistance>
  </Volunteer>
  <Volunteer>
    <Id>327168741</Id>
    <FullName>Daniel Anderson</FullName>
    <Phone>050-9876543</Phone>
    <Email>daniel.anderson@example.com</Email>
    <Password>secretpass</Password>
    <FullAddress>Hameshe 77, Be'er Sheva</FullAddress>
    <Latitude>53.03</Latitude>
    <Longitude>-106.83</Longitude>
    <Role>DISTRICTMANAGER</Role>
    <Active>false</Active>
    <MaxDistance>11426</MaxDistance>
    <TypeOfDistance>AERIALDISTANCE</TypeOfDistance>
  </Volunteer>
  <Volunteer>
    <Id>268559835</Id>
    <FullName>Olivia Lee</FullName>
    <Phone>051-8765432</Phone>
    <Email>olivia.lee@example.com</Email>
    <Password>letmein22</Password>
    <FullAddress>Shalom 100, Rishon Lezion</FullAddress>
    <Latitude>24.91</Latitude>
    <Longitude>45.99</Longitude>
    <Role>VOLUNTEER</Role>
    <Active>false</Active>
    <MaxDistance>4468</MaxDistance>
    <TypeOfDistance>AERIALDISTANCE</TypeOfDistance>
  </Volunteer>
  <Volunteer>
    <Id>216486522</Id>
    <FullName>Matthew Harris</FullName>
    <Phone>052-7654321</Phone>
    <Email>matthew.harris@example.com</Email>
    <Password>secure2023</Password>
    <FullAddress>Kokhav 33, Kfar Saba</FullAddress>
    <Latitude>-64.39</Latitude>
    <Longitude>-134.56</Longitude>
    <Role>VOLUNTEER</Role>
    <Active>true</Active>
    <MaxDistance>7110</MaxDistance>
    <TypeOfDistance>AERIALDISTANCE</TypeOfDistance>
  </Volunteer>
  <Volunteer>
    <Id>359309872</Id>
    <FullName>Lily Clark</FullName>
    <Phone>053-6543210</Phone>
    <Email>lily.clark@example.com</Email>
    <Password>testpass1</Password>
    <FullAddress>Meretz 21, Hadera</FullAddress>
    <Latitude>71.12</Latitude>
    <Longitude>72.88</Longitude>
    <Role>VOLUNTEER</Role>
    <Active>true</Active>
    <MaxDistance>7702</MaxDistance>
    <TypeOfDistance>AERIALDISTANCE</TypeOfDistance>
  </Volunteer>
  <Volunteer>
    <Id>230751868</Id>
    <FullName>James Walker</FullName>
    <Phone>054-5432109</Phone>
    <Email>james.walker@example.com</Email>
    <Password>password2024</Password>
    <FullAddress>Chaim 5, Rehovot</FullAddress>
    <Latitude>-3.67</Latitude>
    <Longitude>-50.32</Longitude>
    <Role>DISTRICTMANAGER</Role>
    <Active>true</Active>
    <MaxDistance>2729</MaxDistance>
    <TypeOfDistance>AERIALDISTANCE</TypeOfDistance>
  </Volunteer>
  <Volunteer>
    <Id>382837869</Id>
    <FullName>Chloe Hall</FullName>
    <Phone>055-4321098</Phone>
    <Email>chloe.hall@example.com</Email>
    <Password>mysecret123</Password>
    <FullAddress>Egzoz 18, Eilat</FullAddress>
    <Latitude>33.56</Latitude>
    <Longitude>12.96</Longitude>
    <Role>VOLUNTEER</Role>
    <Active>false</Active>
    <MaxDistance>8875</MaxDistance>
    <TypeOfDistance>AERIALDISTANCE</TypeOfDistance>
  </Volunteer>
  <Volunteer>
    <Id>257669827</Id>
    <FullName>Benjamin Young</FullName>
    <Phone>056-3210987</Phone>
    <Email>benjamin.young@example.com</Email>
    <Password>access123</Password>
    <FullAddress>Merkaz 99, Modiin</FullAddress>
    <Latitude>12.73</Latitude>
    <Longitude>-82.42</Longitude>
    <Role>VOLUNTEER</Role>
    <Active>false</Active>
    <MaxDistance>4175</MaxDistance>
    <TypeOfDistance>AERIALDISTANCE</TypeOfDistance>
  </Volunteer>
  <Volunteer>
    <Id>303091071</Id>
    <FullName>Mia Scott</FullName>
    <Phone>057-2109876</Phone>
    <Email>mia.scott@example.com</Email>
    <Password>12345qwerty</Password>
    <FullAddress>Dekel 4, Netivot</FullAddress>
    <Latitude>-51.3</Latitude>
    <Longitude>10.15</Longitude>
    <Role>DISTRICTMANAGER</Role>
    <Active>false</Active>
    <MaxDistance>9775</MaxDistance>
    <TypeOfDistance>AERIALDISTANCE</TypeOfDistance>
  </Volunteer>
  <Volunteer>
    <Id>282112107</Id>
    <FullName>Ethan Adams</FullName>
    <Phone>058-1098765</Phone>
    <Email>ethan.adams@example.com</Email>
    <Password>iloveme</Password>
    <FullAddress>Hahatzav 20, Kiryat Gat</FullAddress>
    <Latitude>-5.64</Latitude>
    <Longitude>47.72</Longitude>
    <Role>VOLUNTEER</Role>
    <Active>false</Active>
    <MaxDistance>6781</MaxDistance>
    <TypeOfDistance>AERIALDISTANCE</TypeOfDistance>
  </Volunteer>
  <Volunteer>
    <Id>284501989</Id>
    <FullName>Isabella King</FullName>
    <Phone>059-0987654</Phone>
    <Email>isabella.king@example.com</Email>
    <Password>mypassword01</Password>
    <FullAddress>Hahof 3, Bat Yam</FullAddress>
    <Latitude>40.58</Latitude>
    <Longitude>-68.09</Longitude>
    <Role>VOLUNTEER</Role>
    <Active>false</Active>
    <MaxDistance>10013</MaxDistance>
    <TypeOfDistance>AERIALDISTANCE</TypeOfDistance>
  </Volunteer>
  <Volunteer>
    <Id>373659740</Id>
    <FullName>Aiden Martinez</FullName>
    <Phone>050-9876543</Phone>
    <Email>aiden.martinez@example.com</Email>
    <Password>adminpassword</Password>
    <FullAddress>Hamavak 8, Ashkelon</FullAddress>
    <Latitude>11.09</Latitude>
    <Longitude>134.54</Longitude>
    <Role>VOLUNTEER</Role>
    <Active>true</Active>
    <MaxDistance>8962</MaxDistance>
    <TypeOfDistance>AERIALDISTANCE</TypeOfDistance>
  </Volunteer>
  <Volunteer>
    <Id>272754968</Id>
    <FullName>Charlotte Lee</FullName>
    <Phone>051-8765432</Phone>
    <Email>charlotte.lee@example.com</Email>
    <Password>password!23</Password>
    <FullAddress>Hakikar 12, Ramla</FullAddress>
    <Latitude>-72.96</Latitude>
    <Longitude>-23.11</Longitude>
    <Role>VOLUNTEER</Role>
    <Active>true</Active>
    <MaxDistance>2204</MaxDistance>
    <TypeOfDistance>AERIALDISTANCE</TypeOfDistance>
  </Volunteer>
  <Volunteer>
    <Id>201435017</Id>
    <FullName>Lucas Perez</FullName>
    <Phone>052-7654321</Phone>
    <Email>lucas.perez@example.com</Email>
    <Password>123qwerty</Password>
    <FullAddress>Arava 25, Afula</FullAddress>
    <Latitude>34.88</Latitude>
    <Longitude>39.87</Longitude>
    <Role>DISTRICTMANAGER</Role>
    <Active>false</Active>
    <MaxDistance>4747</MaxDistance>
    <TypeOfDistance>AERIALDISTANCE</TypeOfDistance>
  </Volunteer>
  <Volunteer>
    <Id>235296161</Id>
    <FullName>Amelia Rodriguez</FullName>
    <Phone>053-6543210</Phone>
    <Email>amelia.rodriguez@example.com</Email>
    <Password>letmein2023</Password>
    <FullAddress>Hayam 30, Tiberias</FullAddress>
    <Latitude>-28.14</Latitude>
    <Longitude>-116.97</Longitude>
    <Role>VOLUNTEER</Role>
    <Active>false</Active>
    <MaxDistance>1758</MaxDistance>
    <TypeOfDistance>AERIALDISTANCE</TypeOfDistance>
  </Volunteer>
  <Volunteer>
    <Id>350565374</Id>
    <FullName>Henry Green</FullName>
    <Phone>054-5432109</Phone>
    <Email>henry.green@example.com</Email>
    <Password>strongpass22</Password>
    <FullAddress>Marpe 40, Raanana</FullAddress>
    <Latitude>61.29</Latitude>
    <Longitude>107.33</Longitude>
    <Role>VOLUNTEER</Role>
    <Active>true</Active>
    <MaxDistance>3026</MaxDistance>
    <TypeOfDistance>AERIALDISTANCE</TypeOfDistance>
  </Volunteer>
  <Volunteer>
    <Id>253177097</Id>
    <FullName>Aria Hall</FullName>
    <Phone>055-4321098</Phone>
    <Email>aria.hall@example.com</Email>
    <Password>qwertz123</Password>
    <FullAddress>Technology 67, Petah Tikva</FullAddress>
    <Latitude>43.67</Latitude>
    <Longitude>-3.77</Longitude>
    <Role>VOLUNTEER</Role>
    <Active>false</Active>
    <MaxDistance>11808</MaxDistance>
    <TypeOfDistance>AERIALDISTANCE</TypeOfDistance>
  </Volunteer>
  <Volunteer>
    <Id>266603158</Id>
    <FullName>Samuel Harris</FullName>
    <Phone>056-3210987</Phone>
    <Email>samuel.harris@example.com</Email>
    <Password>abcpassword</Password>
    <FullAddress>Gefen 22, Be'er Sheva</FullAddress>
    <Latitude>-44.51</Latitude>
    <Longitude>63.62</Longitude>
    <Role>VOLUNTEER</Role>
    <Active>true</Active>
    <MaxDistance>963</MaxDistance>
    <TypeOfDistance>AERIALDISTANCE</TypeOfDistance>
  </Volunteer>
  <Volunteer>
    <Id>241011968</Id>
    <FullName>Ella Carter</FullName>
    <Phone>057-2109876</Phone>
    <Email>ella.carter@example.com</Email>
    <Password>mypassword@2024</Password>
    <FullAddress>Mitzpe 6, Givatayim</FullAddress>
    <Latitude>37.98</Latitude>
    <Longitude>80.11</Longitude>
    <Role>VOLUNTEER</Role>
    <Active>true</Active>
    <MaxDistance>2109</MaxDistance>
    <TypeOfDistance>AERIALDISTANCE</TypeOfDistance>
  </Volunteer>
  <Volunteer>
    <Id>207260488</Id>
    <FullName>David Walker</FullName>
    <Phone>058-1098765</Phone>
    <Email>david.walker@example.com</Email>
    <Password>passw0rd123</Password>
    <FullAddress>Ogen 75, Azor</FullAddress>
    <Latitude>27.16</Latitude>
    <Longitude>-131.07</Longitude>
    <Role>VOLUNTEER</Role>
    <Active>true</Active>
    <MaxDistance>11717</MaxDistance>
    <TypeOfDistance>AERIALDISTANCE</TypeOfDistance>
  </Volunteer>
  <Volunteer>
    <Id>272143620</Id>
    <FullName>Avery Thompson</FullName>
    <Phone>059-0987654</Phone>
    <Email>avery.thompson@example.com</Email>
    <Password>iloveyou1234</Password>
    <FullAddress>Herpatka 11, Jerusalem</FullAddress>
    <Latitude>-67.89</Latitude>
    <Longitude>-42.55</Longitude>
    <Role>DISTRICTMANAGER</Role>
    <Active>true</Active>
    <MaxDistance>10717</MaxDistance>
    <TypeOfDistance>AERIALDISTANCE</TypeOfDistance>
  </Volunteer>
  <Volunteer>
    <Id>289296280</Id>
    <FullName>Oliver Collins</FullName>
    <Phone>050-9876543</Phone>
    <Email>oliver.collins@example.com</Email>
    <Password>testpassword12</Password>
    <FullAddress>Sela 58, Tirat Carmel</FullAddress>
    <Latitude>-1.34</Latitude>
    <Longitude>141.08</Longitude>
    <Role>VOLUNTEER</Role>
    <Active>true</Active>
    <MaxDistance>3493</MaxDistance>
    <TypeOfDistance>AERIALDISTANCE</TypeOfDistance>
  </Volunteer>
  <Volunteer>
    <Id>363174381</Id>
    <FullName>Sophie White</FullName>
    <Phone>051-8765432</Phone>
    <Email>sophie.white@example.com</Email>
    <Password>openai123</Password>
    <FullAddress>Atid 3, Kiryat Shmona</FullAddress>
    <Latitude>49.02</Latitude>
    <Longitude>24.39</Longitude>
    <Role>VOLUNTEER</Role>
    <Active>false</Active>
    <MaxDistance>9730</MaxDistance>
    <TypeOfDistance>AERIALDISTANCE</TypeOfDistance>
  </Volunteer>
  <Volunteer>
    <Id>378595109</Id>
    <FullName>William Wright</FullName>
    <Phone>052-7654321</Phone>
    <Email>william.wright@example.com</Email>
    <Password>adminsecure</Password>
    <FullAddress>Kokhavim 25, Haifa</FullAddress>
    <Latitude>50.87</Latitude>
    <Longitude>51.61</Longitude>
    <Role>VOLUNTEER</Role>
    <Active>false</Active>
    <MaxDistance>10565</MaxDistance>
    <TypeOfDistance>AERIALDISTANCE</TypeOfDistance>
  </Volunteer>
  <Volunteer>
    <Id>227629871</Id>
    <FullName>Megan Nelson</FullName>
    <Phone>053-6543210</Phone>
    <Email>megan.nelson@example.com</Email>
    <Password>securepassword01</Password>
    <FullAddress>Hama'arav 9, Acre</FullAddress>
    <Latitude>-32.54</Latitude>
    <Longitude>-73.9</Longitude>
    <Role>DISTRICTMANAGER</Role>
    <Active>false</Active>
    <MaxDistance>704</MaxDistance>
    <TypeOfDistance>AERIALDISTANCE</TypeOfDistance>
  </Volunteer>
  <Volunteer>
    <Id>312483563</Id>
    <FullName>Jack Brown</FullName>
    <Phone>054-5432109</Phone>
    <Email>jack.brown@example.com</Email>
    <Password>bestpassword!</Password>
    <FullAddress>Penina 14, Bnei Brak</FullAddress>
    <Latitude>65.72</Latitude>
    <Longitude>137.32</Longitude>
    <Role>VOLUNTEER</Role>
    <Active>false</Active>
    <MaxDistance>11413</MaxDistance>
    <TypeOfDistance>AERIALDISTANCE</TypeOfDistance>
  </Volunteer>
  <Volunteer>
    <Id>310595762</Id>
    <FullName>Madison Roberts</FullName>
    <Phone>055-4321098</Phone>
    <Email>madison.roberts@example.com</Email>
    <Password>chatrocks</Password>
    <FullAddress>Ir 90, Lod</FullAddress>
    <Latitude>21.55</Latitude>
    <Longitude>-114.98</Longitude>
    <Role>VOLUNTEER</Role>
    <Active>true</Active>
    <MaxDistance>4232</MaxDistance>
    <TypeOfDistance>AERIALDISTANCE</TypeOfDistance>
  </Volunteer>
  <Volunteer>
    <Id>352501641</Id>
    <FullName>Jacob Carter</FullName>
    <Phone>056-3210987</Phone>
    <Email>jacob.carter@example.com</Email>
    <Password>strongpass1</Password>
    <FullAddress>Gan 11, Kfar Yona</FullAddress>
    <Latitude>-16.9</Latitude>
    <Longitude>-120.6</Longitude>
    <Role>VOLUNTEER</Role>
    <Active>false</Active>
    <MaxDistance>2039</MaxDistance>
    <TypeOfDistance>AERIALDISTANCE</TypeOfDistance>
  </Volunteer>
  <Volunteer>
    <Id>239126856</Id>
    <FullName>Sophia Brooks</FullName>
    <Phone>057-2109876</Phone>
    <Email>sophia.brooks@example.com</Email>
    <Password>newpassword2024</Password>
    <FullAddress>Flag 77, Netanya</FullAddress>
    <Latitude>54.03</Latitude>
    <Longitude>48.01</Longitude>
    <Role>VOLUNTEER</Role>
    <Active>true</Active>
    <MaxDistance>5372</MaxDistance>
    <TypeOfDistance>AERIALDISTANCE</TypeOfDistance>
  </Volunteer>
  <Volunteer>
    <Id>294901794</Id>
    <FullName>Jackson Scott</FullName>
    <Phone>058-1098765</Phone>
    <Email>jackson.scott@example.com</Email>
    <Password>password01@</Password>
    <FullAddress>Boker 45, Eilat</FullAddress>
    <Latitude>-55.43</Latitude>
    <Longitude>-59.37</Longitude>
    <Role>VOLUNTEER</Role>
    <Active>true</Active>
    <MaxDistance>9604</MaxDistance>
    <TypeOfDistance>AERIALDISTANCE</TypeOfDistance>
  </Volunteer>
  <Volunteer>
    <Id>243227228</Id>
    <FullName>Grace Turner</FullName>
    <Phone>059-0987654</Phone>
    <Email>grace.turner@example.com</Email>
    <Password>welcome@123</Password>
    <FullAddress>Masila 32, Modiin</FullAddress>
    <Latitude>60.44</Latitude>
    <Longitude>16.94</Longitude>
    <Role>VOLUNTEER</Role>
    <Active>true</Active>
    <MaxDistance>8626</MaxDistance>
    <TypeOfDistance>AERIALDISTANCE</TypeOfDistance>
  </Volunteer>
  <Volunteer>
    <Id>222505458</Id>
    <FullName>Mason Miller</FullName>
    <Phone>050-9876543</Phone>
    <Email>mason.miller@example.com</Email>
    <Password>1234password</Password>
    <FullAddress>Yarden 3, Nahariya</FullAddress>
    <Latitude>19.92</Latitude>
    <Longitude>-80.23</Longitude>
    <Role>DISTRICTMANAGER</Role>
    <Active>true</Active>
    <MaxDistance>7851</MaxDistance>
    <TypeOfDistance>AERIALDISTANCE</TypeOfDistance>
  </Volunteer>
  <Volunteer>
    <Id>351538166</Id>
    <FullName>Liam King</FullName>
    <Phone>051-8765432</Phone>
    <Email>liam.king@example.com</Email>
    <Password>secret1234</Password>
    <FullAddress>Ayin 50, Migdal HaEmek</FullAddress>
    <Latitude>-9.35</Latitude>
    <Longitude>114.79</Longitude>
    <Role>VOLUNTEER</Role>
    <Active>true</Active>
    <MaxDistance>8892</MaxDistance>
    <TypeOfDistance>AERIALDISTANCE</TypeOfDistance>
  </Volunteer>
  <Volunteer>
    <Id>245882772</Id>
    <FullName>Charlotte Walker</FullName>
    <Phone>052-7654321</Phone>
    <Email>charlotte.walker@example.com</Email>
    <Password>tbot2023</Password>
    <FullAddress>Dekel 99, Petah Tikva</FullAddress>
    <Latitude>68.78</Latitude>
    <Longitude>-160.5</Longitude>
    <Role>DISTRICTMANAGER</Role>
    <Active>true</Active>
    <MaxDistance>11284</MaxDistance>
    <TypeOfDistance>AERIALDISTANCE</TypeOfDistance>
  </Volunteer>
  <Volunteer>
    <Id>263259919</Id>
    <FullName>Daniel Evans</FullName>
    <Phone>053-6543210</Phone>
    <Email>daniel.evans@example.com</Email>
    <Password>securechatgpt</Password>
    <FullAddress>Kfar 8, Gedera</FullAddress>
    <Latitude>-14.47</Latitude>
    <Longitude>70.77</Longitude>
    <Role>VOLUNTEER</Role>
    <Active>false</Active>
    <MaxDistance>4428</MaxDistance>
    <TypeOfDistance>AERIALDISTANCE</TypeOfDistance>
  </Volunteer>
  <Volunteer>
    <Id>207512312</Id>
    <FullName>Ella Green</FullName>
    <Phone>054-5432109</Phone>
    <Email>ella.green@example.com</Email>
    <Password>pass1234</Password>
    <FullAddress>Nof 3, Herzliya</FullAddress>
    <Latitude>36.09</Latitude>
    <Longitude>53.2</Longitude>
    <Role>VOLUNTEER</Role>
    <Active>true</Active>
    <MaxDistance>5141</MaxDistance>
    <TypeOfDistance>AERIALDISTANCE</TypeOfDistance>
  </Volunteer>
  <Volunteer>
    <Id>395940837</Id>
    <FullName>Oliver Evans</FullName>
    <Phone>055-4321098</Phone>
    <Email>oliver.evans@example.com</Email>
    <Password>qwertz!234</Password>
    <FullAddress>Geva 60, Ashkelon</FullAddress>
    <Latitude>56.47</Latitude>
    <Longitude>-9.88</Longitude>
    <Role>VOLUNTEER</Role>
    <Active>false</Active>
    <MaxDistance>1143</MaxDistance>
    <TypeOfDistance>AERIALDISTANCE</TypeOfDistance>
  </Volunteer>
  <Volunteer>
    <Id>351089806</Id>
    <FullName>John Doe</FullName>
    <Phone>052-1234567</Phone>
    <Email>john.doe@example.com</Email>
    <Password>password123</Password>
    <FullAddress>Main Street 1, Tel Aviv</FullAddress>
    <Latitude>-45.27</Latitude>
    <Longitude>13.45</Longitude>
    <Role>DISTRICTMANAGER</Role>
    <Active>true</Active>
    <MaxDistance>794</MaxDistance>
    <TypeOfDistance>AERIALDISTANCE</TypeOfDistance>
  </Volunteer>
  <Volunteer>
    <Id>298272510</Id>
    <FullName>Jane Smith</FullName>
    <Phone>053-2345678</Phone>
    <Email>jane.smith@example.com</Email>
    <Password>abc123</Password>
    <FullAddress>Har 2, Jerusalem</FullAddress>
    <Latitude>32.41</Latitude>
    <Longitude>-118.65</Longitude>
    <Role>VOLUNTEER</Role>
    <Active>true</Active>
    <MaxDistance>7490</MaxDistance>
    <TypeOfDistance>AERIALDISTANCE</TypeOfDistance>
  </Volunteer>
  <Volunteer>
    <Id>375011450</Id>
    <FullName>Michael Johnson</FullName>
    <Phone>054-3456789</Phone>
    <Email>michael.johnson@example.com</Email>
    <Password>qwerty123</Password>
    <FullAddress>Independence 45, Haifa</FullAddress>
    <Latitude>-12.55</Latitude>
    <Longitude>23.53</Longitude>
    <Role>VOLUNTEER</Role>
    <Active>true</Active>
    <MaxDistance>2821</MaxDistance>
    <TypeOfDistance>AERIALDISTANCE</TypeOfDistance>
  </Volunteer>
  <Volunteer>
    <Id>270758651</Id>
    <FullName>Emily Davis</FullName>
    <Phone>055-4567890</Phone>
    <Email>emily.davis@example.com</Email>
    <Password>letmein2024</Password>
    <FullAddress>Galil 12, Petah Tikva</FullAddress>
    <Latitude>57.8</Latitude>
    <Longitude>89.45</Longitude>
    <Role>DISTRICTMANAGER</Role>
    <Active>false</Active>
    <MaxDistance>8891</MaxDistance>
    <TypeOfDistance>AERIALDISTANCE</TypeOfDistance>
  </Volunteer>
  <Volunteer>
    <Id>205960474</Id>
    <FullName>Chris Brown</FullName>
    <Phone>056-5678901</Phone>
    <Email>chris.brown@example.com</Email>
    <Password>welcome1</Password>
    <FullAddress>Harbor 8, Ashdod</FullAddress>
    <Latitude>29.82</Latitude>
    <Longitude>-62.34</Longitude>
    <Role>VOLUNTEER</Role>
    <Active>true</Active>
    <MaxDistance>9703</MaxDistance>
    <TypeOfDistance>AERIALDISTANCE</TypeOfDistance>
  </Volunteer>
  <Volunteer>
    <Id>335646400</Id>
    <FullName>Jessica Taylor</FullName>
    <Phone>057-6789012</Phone>
    <Email>jessica.taylor@example.com</Email>
    <Password>1234abcd</Password>
    <FullAddress>Hadar 34, Ramat Gan</FullAddress>
    <Latitude>-20.94</Latitude>
    <Longitude>31.22</Longitude>
    <Role>VOLUNTEER</Role>
    <Active>true</Active>
    <MaxDistance>6037</MaxDistance>
    <TypeOfDistance>AERIALDISTANCE</TypeOfDistance>
  </Volunteer>
  <Volunteer>
    <Id>329569404</Id>
    <FullName>David Wilson</FullName>
    <Phone>058-7890123</Phone>
    <Email>david.wilson@example.com</Email>
    <Password>iloveyou99</Password>
    <FullAddress>Zamir 56, Netanya</FullAddress>
    <Latitude>48.16</Latitude>
    <Longitude>-15.78</Longitude>
    <Role>VOLUNTEER</Role>
    <Active>true</Active>
    <MaxDistance>829</MaxDistance>
    <TypeOfDistance>AERIALDISTANCE</TypeOfDistance>
  </Volunteer>
  <Volunteer>
    <Id>220304137</Id>
    <FullName>Sophia Moore</FullName>
    <Phone>059-8901234</Phone>
    <Email>sophia.moore@example.com</Email>
    <Password>admin123</Password>
    <FullAddress>Yarkon 10, Holon</FullAddress>
    <Latitude>-38.69</Latitude>
    <Longitude>78.64</Longitude>
    <Role>VOLUNTEER</Role>
    <Active>false</Active>
    <MaxDistance>12248</MaxDistance>
    <TypeOfDistance>AERIALDISTANCE</TypeOfDistance>
  </Volunteer>
  <Volunteer>
    <Id>203285654</Id>
    <FullName>Daniel Anderson</FullName>
    <Phone>050-9876543</Phone>
    <Email>daniel.anderson@example.com</Email>
    <Password>secretpass</Password>
    <FullAddress>Hameshe 77, Be'er Sheva</FullAddress>
    <Latitude>53.03</Latitude>
    <Longitude>-106.83</Longitude>
    <Role>DISTRICTMANAGER</Role>
    <Active>true</Active>
    <MaxDistance>1802</MaxDistance>
    <TypeOfDistance>AERIALDISTANCE</TypeOfDistance>
  </Volunteer>
  <Volunteer>
    <Id>332476484</Id>
    <FullName>Olivia Lee</FullName>
    <Phone>051-8765432</Phone>
    <Email>olivia.lee@example.com</Email>
    <Password>letmein22</Password>
    <FullAddress>Shalom 100, Rishon Lezion</FullAddress>
    <Latitude>24.91</Latitude>
    <Longitude>45.99</Longitude>
    <Role>VOLUNTEER</Role>
    <Active>true</Active>
    <MaxDistance>5750</MaxDistance>
    <TypeOfDistance>AERIALDISTANCE</TypeOfDistance>
  </Volunteer>
  <Volunteer>
    <Id>365044380</Id>
    <FullName>Matthew Harris</FullName>
    <Phone>052-7654321</Phone>
    <Email>matthew.harris@example.com</Email>
    <Password>secure2023</Password>
    <FullAddress>Kokhav 33, Kfar Saba</FullAddress>
    <Latitude>-64.39</Latitude>
    <Longitude>-134.56</Longitude>
    <Role>VOLUNTEER</Role>
    <Active>true</Active>
    <MaxDistance>1996</MaxDistance>
    <TypeOfDistance>AERIALDISTANCE</TypeOfDistance>
  </Volunteer>
  <Volunteer>
    <Id>271666631</Id>
    <FullName>Lily Clark</FullName>
    <Phone>053-6543210</Phone>
    <Email>lily.clark@example.com</Email>
    <Password>testpass1</Password>
    <FullAddress>Meretz 21, Hadera</FullAddress>
    <Latitude>71.12</Latitude>
    <Longitude>72.88</Longitude>
    <Role>VOLUNTEER</Role>
    <Active>false</Active>
    <MaxDistance>11115</MaxDistance>
    <TypeOfDistance>AERIALDISTANCE</TypeOfDistance>
  </Volunteer>
  <Volunteer>
    <Id>378623169</Id>
    <FullName>James Walker</FullName>
    <Phone>054-5432109</Phone>
    <Email>james.walker@example.com</Email>
    <Password>password2024</Password>
    <FullAddress>Chaim 5, Rehovot</FullAddress>
    <Latitude>-3.67</Latitude>
    <Longitude>-50.32</Longitude>
    <Role>DISTRICTMANAGER</Role>
    <Active>false</Active>
    <MaxDistance>96</MaxDistance>
    <TypeOfDistance>AERIALDISTANCE</TypeOfDistance>
  </Volunteer>
  <Volunteer>
    <Id>200982405</Id>
    <FullName>Chloe Hall</FullName>
    <Phone>055-4321098</Phone>
    <Email>chloe.hall@example.com</Email>
    <Password>mysecret123</Password>
    <FullAddress>Egzoz 18, Eilat</FullAddress>
    <Latitude>33.56</Latitude>
    <Longitude>12.96</Longitude>
    <Role>VOLUNTEER</Role>
    <Active>false</Active>
    <MaxDistance>8656</MaxDistance>
    <TypeOfDistance>AERIALDISTANCE</TypeOfDistance>
  </Volunteer>
  <Volunteer>
    <Id>330444779</Id>
    <FullName>Benjamin Young</FullName>
    <Phone>056-3210987</Phone>
    <Email>benjamin.young@example.com</Email>
    <Password>access123</Password>
    <FullAddress>Merkaz 99, Modiin</FullAddress>
    <Latitude>12.73</Latitude>
    <Longitude>-82.42</Longitude>
    <Role>VOLUNTEER</Role>
    <Active>false</Active>
    <MaxDistance>7637</MaxDistance>
    <TypeOfDistance>AERIALDISTANCE</TypeOfDistance>
  </Volunteer>
  <Volunteer>
    <Id>306333903</Id>
    <FullName>Mia Scott</FullName>
    <Phone>057-2109876</Phone>
    <Email>mia.scott@example.com</Email>
    <Password>12345qwerty</Password>
    <FullAddress>Dekel 4, Netivot</FullAddress>
    <Latitude>-51.3</Latitude>
    <Longitude>10.15</Longitude>
    <Role>DISTRICTMANAGER</Role>
    <Active>false</Active>
    <MaxDistance>9962</MaxDistance>
    <TypeOfDistance>AERIALDISTANCE</TypeOfDistance>
  </Volunteer>
  <Volunteer>
    <Id>217106449</Id>
    <FullName>Ethan Adams</FullName>
    <Phone>058-1098765</Phone>
    <Email>ethan.adams@example.com</Email>
    <Password>iloveme</Password>
    <FullAddress>Hahatzav 20, Kiryat Gat</FullAddress>
    <Latitude>-5.64</Latitude>
    <Longitude>47.72</Longitude>
    <Role>VOLUNTEER</Role>
    <Active>false</Active>
    <MaxDistance>3792</MaxDistance>
    <TypeOfDistance>AERIALDISTANCE</TypeOfDistance>
  </Volunteer>
  <Volunteer>
    <Id>265565435</Id>
    <FullName>Isabella King</FullName>
    <Phone>059-0987654</Phone>
    <Email>isabella.king@example.com</Email>
    <Password>mypassword01</Password>
    <FullAddress>Hahof 3, Bat Yam</FullAddress>
    <Latitude>40.58</Latitude>
    <Longitude>-68.09</Longitude>
    <Role>VOLUNTEER</Role>
    <Active>false</Active>
    <MaxDistance>4930</MaxDistance>
    <TypeOfDistance>AERIALDISTANCE</TypeOfDistance>
  </Volunteer>
  <Volunteer>
    <Id>286426182</Id>
    <FullName>Aiden Martinez</FullName>
    <Phone>050-9876543</Phone>
    <Email>aiden.martinez@example.com</Email>
    <Password>adminpassword</Password>
    <FullAddress>Hamavak 8, Ashkelon</FullAddress>
    <Latitude>11.09</Latitude>
    <Longitude>134.54</Longitude>
    <Role>VOLUNTEER</Role>
    <Active>true</Active>
    <MaxDistance>6353</MaxDistance>
    <TypeOfDistance>AERIALDISTANCE</TypeOfDistance>
  </Volunteer>
  <Volunteer>
    <Id>347099158</Id>
    <FullName>John Doe</FullName>
    <Phone>052-1234567</Phone>
    <Email>john.doe@example.com</Email>
    <Password>password123</Password>
    <FullAddress>Main Street 1, Tel Aviv</FullAddress>
    <Latitude>-45.27</Latitude>
    <Longitude>13.45</Longitude>
    <Role>DISTRICTMANAGER</Role>
    <Active>true</Active>
    <MaxDistance>1805</MaxDistance>
    <TypeOfDistance>AERIALDISTANCE</TypeOfDistance>
  </Volunteer>
  <Volunteer>
    <Id>200607168</Id>
    <FullName>Jane Smith</FullName>
    <Phone>053-2345678</Phone>
    <Email>jane.smith@example.com</Email>
    <Password>abc123</Password>
    <FullAddress>Har 2, Jerusalem</FullAddress>
    <Latitude>32.41</Latitude>
    <Longitude>-118.65</Longitude>
    <Role>VOLUNTEER</Role>
    <Active>true</Active>
    <MaxDistance>6711</MaxDistance>
    <TypeOfDistance>AERIALDISTANCE</TypeOfDistance>
  </Volunteer>
  <Volunteer>
    <Id>220761350</Id>
    <FullName>Michael Johnson</FullName>
    <Phone>054-3456789</Phone>
    <Email>michael.johnson@example.com</Email>
    <Password>qwerty123</Password>
    <FullAddress>Independence 45, Haifa</FullAddress>
    <Latitude>-12.55</Latitude>
    <Longitude>23.53</Longitude>
    <Role>VOLUNTEER</Role>
    <Active>true</Active>
    <MaxDistance>10758</MaxDistance>
    <TypeOfDistance>AERIALDISTANCE</TypeOfDistance>
  </Volunteer>
  <Volunteer>
    <Id>213148299</Id>
    <FullName>Emily Davis</FullName>
    <Phone>055-4567890</Phone>
    <Email>emily.davis@example.com</Email>
    <Password>letmein2024</Password>
    <FullAddress>Galil 12, Petah Tikva</FullAddress>
    <Latitude>57.8</Latitude>
    <Longitude>89.45</Longitude>
    <Role>DISTRICTMANAGER</Role>
    <Active>false</Active>
    <MaxDistance>11146</MaxDistance>
    <TypeOfDistance>AERIALDISTANCE</TypeOfDistance>
  </Volunteer>
  <Volunteer>
    <Id>258305007</Id>
    <FullName>Chris Brown</FullName>
    <Phone>056-5678901</Phone>
    <Email>chris.brown@example.com</Email>
    <Password>welcome1</Password>
    <FullAddress>Harbor 8, Ashdod</FullAddress>
    <Latitude>29.82</Latitude>
    <Longitude>-62.34</Longitude>
    <Role>VOLUNTEER</Role>
    <Active>false</Active>
    <MaxDistance>6050</MaxDistance>
    <TypeOfDistance>AERIALDISTANCE</TypeOfDistance>
  </Volunteer>
  <Volunteer>
    <Id>339921377</Id>
    <FullName>Jessica Taylor</FullName>
    <Phone>057-6789012</Phone>
    <Email>jessica.taylor@example.com</Email>
    <Password>1234abcd</Password>
    <FullAddress>Hadar 34, Ramat Gan</FullAddress>
    <Latitude>-20.94</Latitude>
    <Longitude>31.22</Longitude>
    <Role>VOLUNTEER</Role>
    <Active>false</Active>
    <MaxDistance>6421</MaxDistance>
    <TypeOfDistance>AERIALDISTANCE</TypeOfDistance>
  </Volunteer>
  <Volunteer>
    <Id>359769675</Id>
    <FullName>David Wilson</FullName>
    <Phone>058-7890123</Phone>
    <Email>david.wilson@example.com</Email>
    <Password>iloveyou99</Password>
    <FullAddress>Zamir 56, Netanya</FullAddress>
    <Latitude>48.16</Latitude>
    <Longitude>-15.78</Longitude>
    <Role>VOLUNTEER</Role>
    <Active>false</Active>
    <MaxDistance>4161</MaxDistance>
    <TypeOfDistance>AERIALDISTANCE</TypeOfDistance>
  </Volunteer>
  <Volunteer>
    <Id>256509941</Id>
    <FullName>Sophia Moore</FullName>
    <Phone>059-8901234</Phone>
    <Email>sophia.moore@example.com</Email>
    <Password>admin123</Password>
    <FullAddress>Yarkon 10, Holon</FullAddress>
    <Latitude>-38.69</Latitude>
    <Longitude>78.64</Longitude>
    <Role>VOLUNTEER</Role>
    <Active>false</Active>
    <MaxDistance>10458</MaxDistance>
    <TypeOfDistance>AERIALDISTANCE</TypeOfDistance>
  </Volunteer>
  <Volunteer>
    <Id>395762394</Id>
    <FullName>Daniel Anderson</FullName>
    <Phone>050-9876543</Phone>
    <Email>daniel.anderson@example.com</Email>
    <Password>secretpass</Password>
    <FullAddress>Hameshe 77, Be'er Sheva</FullAddress>
    <Latitude>53.03</Latitude>
    <Longitude>-106.83</Longitude>
    <Role>DISTRICTMANAGER</Role>
    <Active>true</Active>
    <MaxDistance>2716</MaxDistance>
    <TypeOfDistance>AERIALDISTANCE</TypeOfDistance>
  </Volunteer>
  <Volunteer>
    <Id>332201516</Id>
    <FullName>Olivia Lee</FullName>
    <Phone>051-8765432</Phone>
    <Email>olivia.lee@example.com</Email>
    <Password>letmein22</Password>
    <FullAddress>Shalom 100, Rishon Lezion</FullAddress>
    <Latitude>24.91</Latitude>
    <Longitude>45.99</Longitude>
    <Role>VOLUNTEER</Role>
    <Active>true</Active>
    <MaxDistance>1061</MaxDistance>
    <TypeOfDistance>AERIALDISTANCE</TypeOfDistance>
  </Volunteer>
  <Volunteer>
    <Id>254308080</Id>
    <FullName>Matthew Harris</FullName>
    <Phone>052-7654321</Phone>
    <Email>matthew.harris@example.com</Email>
    <Password>secure2023</Password>
    <FullAddress>Kokhav 33, Kfar Saba</FullAddress>
    <Latitude>-64.39</Latitude>
    <Longitude>-134.56</Longitude>
    <Role>VOLUNTEER</Role>
    <Active>true</Active>
    <MaxDistance>1804</MaxDistance>
    <TypeOfDistance>AERIALDISTANCE</TypeOfDistance>
  </Volunteer>
  <Volunteer>
    <Id>225684847</Id>
    <FullName>Lily Clark</FullName>
    <Phone>053-6543210</Phone>
    <Email>lily.clark@example.com</Email>
    <Password>testpass1</Password>
    <FullAddress>Meretz 21, Hadera</FullAddress>
    <Latitude>71.12</Latitude>
    <Longitude>72.88</Longitude>
    <Role>VOLUNTEER</Role>
    <Active>false</Active>
    <MaxDistance>5885</MaxDistance>
    <TypeOfDistance>AERIALDISTANCE</TypeOfDistance>
  </Volunteer>
  <Volunteer>
    <Id>383941157</Id>
    <FullName>James Walker</FullName>
    <Phone>054-5432109</Phone>
    <Email>james.walker@example.com</Email>
    <Password>password2024</Password>
    <FullAddress>Chaim 5, Rehovot</FullAddress>
    <Latitude>-3.67</Latitude>
    <Longitude>-50.32</Longitude>
    <Role>DISTRICTMANAGER</Role>
    <Active>false</Active>
    <MaxDistance>7363</MaxDistance>
    <TypeOfDistance>AERIALDISTANCE</TypeOfDistance>
  </Volunteer>
  <Volunteer>
    <Id>250424012</Id>
    <FullName>Chloe Hall</FullName>
    <Phone>055-4321098</Phone>
    <Email>chloe.hall@example.com</Email>
    <Password>mysecret123</Password>
    <FullAddress>Egzoz 18, Eilat</FullAddress>
    <Latitude>33.56</Latitude>
    <Longitude>12.96</Longitude>
    <Role>VOLUNTEER</Role>
    <Active>true</Active>
    <MaxDistance>5076</MaxDistance>
    <TypeOfDistance>AERIALDISTANCE</TypeOfDistance>
  </Volunteer>
  <Volunteer>
    <Id>231464837</Id>
    <FullName>Benjamin Young</FullName>
    <Phone>056-3210987</Phone>
    <Email>benjamin.young@example.com</Email>
    <Password>access123</Password>
    <FullAddress>Merkaz 99, Modiin</FullAddress>
    <Latitude>12.73</Latitude>
    <Longitude>-82.42</Longitude>
    <Role>VOLUNTEER</Role>
    <Active>false</Active>
    <MaxDistance>7144</MaxDistance>
    <TypeOfDistance>AERIALDISTANCE</TypeOfDistance>
  </Volunteer>
  <Volunteer>
    <Id>339614312</Id>
    <FullName>Mia Scott</FullName>
    <Phone>057-2109876</Phone>
    <Email>mia.scott@example.com</Email>
    <Password>12345qwerty</Password>
    <FullAddress>Dekel 4, Netivot</FullAddress>
    <Latitude>-51.3</Latitude>
    <Longitude>10.15</Longitude>
    <Role>DISTRICTMANAGER</Role>
    <Active>true</Active>
    <MaxDistance>4410</MaxDistance>
    <TypeOfDistance>AERIALDISTANCE</TypeOfDistance>
  </Volunteer>
  <Volunteer>
    <Id>226454573</Id>
    <FullName>Ethan Adams</FullName>
    <Phone>058-1098765</Phone>
    <Email>ethan.adams@example.com</Email>
    <Password>iloveme</Password>
    <FullAddress>Hahatzav 20, Kiryat Gat</FullAddress>
    <Latitude>-5.64</Latitude>
    <Longitude>47.72</Longitude>
    <Role>VOLUNTEER</Role>
    <Active>false</Active>
    <MaxDistance>381</MaxDistance>
    <TypeOfDistance>AERIALDISTANCE</TypeOfDistance>
  </Volunteer>
  <Volunteer>
    <Id>369418444</Id>
    <FullName>Isabella King</FullName>
    <Phone>059-0987654</Phone>
    <Email>isabella.king@example.com</Email>
    <Password>mypassword01</Password>
    <FullAddress>Hahof 3, Bat Yam</FullAddress>
    <Latitude>40.58</Latitude>
    <Longitude>-68.09</Longitude>
    <Role>VOLUNTEER</Role>
    <Active>true</Active>
    <MaxDistance>2113</MaxDistance>
    <TypeOfDistance>AERIALDISTANCE</TypeOfDistance>
  </Volunteer>
  <Volunteer>
    <Id>390292742</Id>
    <FullName>Aiden Martinez</FullName>
    <Phone>050-9876543</Phone>
    <Email>aiden.martinez@example.com</Email>
    <Password>adminpassword</Password>
    <FullAddress>Hamavak 8, Ashkelon</FullAddress>
    <Latitude>11.09</Latitude>
    <Longitude>134.54</Longitude>
    <Role>VOLUNTEER</Role>
    <Active>true</Active>
    <MaxDistance>10829</MaxDistance>
    <TypeOfDistance>AERIALDISTANCE</TypeOfDistance>
  </Volunteer>
  <Volunteer>
    <Id>358996049</Id>
    <FullName>Charlotte Lee</FullName>
    <Phone>051-8765432</Phone>
    <Email>charlotte.lee@example.com</Email>
    <Password>password!23</Password>
    <FullAddress>Hakikar 12, Ramla</FullAddress>
    <Latitude>-72.96</Latitude>
    <Longitude>-23.11</Longitude>
    <Role>VOLUNTEER</Role>
    <Active>false</Active>
    <MaxDistance>1104</MaxDistance>
    <TypeOfDistance>AERIALDISTANCE</TypeOfDistance>
  </Volunteer>
  <Volunteer>
    <Id>355458566</Id>
    <FullName>Lucas Perez</FullName>
    <Phone>052-7654321</Phone>
    <Email>lucas.perez@example.com</Email>
    <Password>123qwerty</Password>
    <FullAddress>Arava 25, Afula</FullAddress>
    <Latitude>34.88</Latitude>
    <Longitude>39.87</Longitude>
    <Role>DISTRICTMANAGER</Role>
    <Active>true</Active>
    <MaxDistance>7491</MaxDistance>
    <TypeOfDistance>AERIALDISTANCE</TypeOfDistance>
  </Volunteer>
  <Volunteer>
    <Id>320819775</Id>
    <FullName>Amelia Rodriguez</FullName>
    <Phone>053-6543210</Phone>
    <Email>amelia.rodriguez@example.com</Email>
    <Password>letmein2023</Password>
    <FullAddress>Hayam 30, Tiberias</FullAddress>
    <Latitude>-28.14</Latitude>
    <Longitude>-116.97</Longitude>
    <Role>VOLUNTEER</Role>
    <Active>false</Active>
    <MaxDistance>9908</MaxDistance>
    <TypeOfDistance>AERIALDISTANCE</TypeOfDistance>
  </Volunteer>
  <Volunteer>
    <Id>379872441</Id>
    <FullName>Henry Green</FullName>
    <Phone>054-5432109</Phone>
    <Email>henry.green@example.com</Email>
    <Password>strongpass22</Password>
    <FullAddress>Marpe 40, Raanana</FullAddress>
    <Latitude>61.29</Latitude>
    <Longitude>107.33</Longitude>
    <Role>VOLUNTEER</Role>
    <Active>false</Active>
    <MaxDistance>11546</MaxDistance>
    <TypeOfDistance>AERIALDISTANCE</TypeOfDistance>
  </Volunteer>
  <Volunteer>
    <Id>212116061</Id>
    <FullName>Aria Hall</FullName>
    <Phone>055-4321098</Phone>
    <Email>aria.hall@example.com</Email>
    <Password>qwertz123</Password>
    <FullAddress>Technology 67, Petah Tikva</FullAddress>
    <Latitude>43.67</Latitude>
    <Longitude>-3.77</Longitude>
    <Role>VOLUNTEER</Role>
    <Active>false</Active>
    <MaxDistance>4374</MaxDistance>
    <TypeOfDistance>AERIALDISTANCE</TypeOfDistance>
  </Volunteer>
  <Volunteer>
    <Id>389526571</Id>
    <FullName>Samuel Harris</FullName>
    <Phone>056-3210987</Phone>
    <Email>samuel.harris@example.com</Email>
    <Password>abcpassword</Password>
    <FullAddress>Gefen 22, Be'er Sheva</FullAddress>
    <Latitude>-44.51</Latitude>
    <Longitude>63.62</Longitude>
    <Role>VOLUNTEER</Role>
    <Active>false</Active>
    <MaxDistance>9623</MaxDistance>
    <TypeOfDistance>AERIALDISTANCE</TypeOfDistance>
  </Volunteer>
  <Volunteer>
    <Id>289160711</Id>
    <FullName>Ella Carter</FullName>
    <Phone>057-2109876</Phone>
    <Email>ella.carter@example.com</Email>
    <Password>mypassword@2024</Password>
    <FullAddress>Mitzpe 6, Givatayim</FullAddress>
    <Latitude>37.98</Latitude>
    <Longitude>80.11</Longitude>
    <Role>VOLUNTEER</Role>
    <Active>false</Active>
    <MaxDistance>6290</MaxDistance>
    <TypeOfDistance>AERIALDISTANCE</TypeOfDistance>
  </Volunteer>
  <Volunteer>
    <Id>268474369</Id>
    <FullName>David Walker</FullName>
    <Phone>058-1098765</Phone>
    <Email>david.walker@example.com</Email>
    <Password>passw0rd123</Password>
    <FullAddress>Ogen 75, Azor</FullAddress>
    <Latitude>27.16</Latitude>
    <Longitude>-131.07</Longitude>
    <Role>VOLUNTEER</Role>
    <Active>false</Active>
    <MaxDistance>8552</MaxDistance>
    <TypeOfDistance>AERIALDISTANCE</TypeOfDistance>
  </Volunteer>
  <Volunteer>
    <Id>386527667</Id>
    <FullName>Avery Thompson</FullName>
    <Phone>059-0987654</Phone>
    <Email>avery.thompson@example.com</Email>
    <Password>iloveyou1234</Password>
    <FullAddress>Herpatka 11, Jerusalem</FullAddress>
    <Latitude>-67.89</Latitude>
    <Longitude>-42.55</Longitude>
    <Role>DISTRICTMANAGER</Role>
    <Active>false</Active>
    <MaxDistance>6465</MaxDistance>
    <TypeOfDistance>AERIALDISTANCE</TypeOfDistance>
  </Volunteer>
  <Volunteer>
    <Id>223827548</Id>
    <FullName>Oliver Collins</FullName>
    <Phone>050-9876543</Phone>
    <Email>oliver.collins@example.com</Email>
    <Password>testpassword12</Password>
    <FullAddress>Sela 58, Tirat Carmel</FullAddress>
    <Latitude>-1.34</Latitude>
    <Longitude>141.08</Longitude>
    <Role>VOLUNTEER</Role>
    <Active>true</Active>
    <MaxDistance>7110</MaxDistance>
    <TypeOfDistance>AERIALDISTANCE</TypeOfDistance>
  </Volunteer>
  <Volunteer>
    <Id>297748337</Id>
    <FullName>Sophie White</FullName>
    <Phone>051-8765432</Phone>
    <Email>sophie.white@example.com</Email>
    <Password>openai123</Password>
    <FullAddress>Atid 3, Kiryat Shmona</FullAddress>
    <Latitude>49.02</Latitude>
    <Longitude>24.39</Longitude>
    <Role>VOLUNTEER</Role>
    <Active>false</Active>
    <MaxDistance>7848</MaxDistance>
    <TypeOfDistance>AERIALDISTANCE</TypeOfDistance>
  </Volunteer>
  <Volunteer>
    <Id>350082533</Id>
    <FullName>William Wright</FullName>
    <Phone>052-7654321</Phone>
    <Email>william.wright@example.com</Email>
    <Password>adminsecure</Password>
    <FullAddress>Kokhavim 25, Haifa</FullAddress>
    <Latitude>50.87</Latitude>
    <Longitude>51.61</Longitude>
    <Role>VOLUNTEER</Role>
    <Active>false</Active>
    <MaxDistance>3772</MaxDistance>
    <TypeOfDistance>AERIALDISTANCE</TypeOfDistance>
  </Volunteer>
  <Volunteer>
    <Id>309645435</Id>
    <FullName>Megan Nelson</FullName>
    <Phone>053-6543210</Phone>
    <Email>megan.nelson@example.com</Email>
    <Password>securepassword01</Password>
    <FullAddress>Hama'arav 9, Acre</FullAddress>
    <Latitude>-32.54</Latitude>
    <Longitude>-73.9</Longitude>
    <Role>DISTRICTMANAGER</Role>
    <Active>false</Active>
    <MaxDistance>9541</MaxDistance>
    <TypeOfDistance>AERIALDISTANCE</TypeOfDistance>
  </Volunteer>
  <Volunteer>
    <Id>288423803</Id>
    <FullName>Jack Brown</FullName>
    <Phone>054-5432109</Phone>
    <Email>jack.brown@example.com</Email>
    <Password>bestpassword!</Password>
    <FullAddress>Penina 14, Bnei Brak</FullAddress>
    <Latitude>65.72</Latitude>
    <Longitude>137.32</Longitude>
    <Role>VOLUNTEER</Role>
    <Active>false</Active>
    <MaxDistance>3550</MaxDistance>
    <TypeOfDistance>AERIALDISTANCE</TypeOfDistance>
  </Volunteer>
  <Volunteer>
    <Id>311630970</Id>
    <FullName>Madison Roberts</FullName>
    <Phone>055-4321098</Phone>
    <Email>madison.roberts@example.com</Email>
    <Password>chatrocks</Password>
    <FullAddress>Ir 90, Lod</FullAddress>
    <Latitude>21.55</Latitude>
    <Longitude>-114.98</Longitude>
    <Role>VOLUNTEER</Role>
    <Active>true</Active>
    <MaxDistance>6874</MaxDistance>
    <TypeOfDistance>AERIALDISTANCE</TypeOfDistance>
  </Volunteer>
  <Volunteer>
    <Id>246374424</Id>
    <FullName>Jacob Carter</FullName>
    <Phone>056-3210987</Phone>
    <Email>jacob.carter@example.com</Email>
    <Password>strongpass1</Password>
    <FullAddress>Gan 11, Kfar Yona</FullAddress>
    <Latitude>-16.9</Latitude>
    <Longitude>-120.6</Longitude>
    <Role>VOLUNTEER</Role>
    <Active>true</Active>
    <MaxDistance>11665</MaxDistance>
    <TypeOfDistance>AERIALDISTANCE</TypeOfDistance>
  </Volunteer>
  <Volunteer>
    <Id>340255410</Id>
    <FullName>Sophia Brooks</FullName>
    <Phone>057-2109876</Phone>
    <Email>sophia.brooks@example.com</Email>
    <Password>newpassword2024</Password>
    <FullAddress>Flag 77, Netanya</FullAddress>
    <Latitude>54.03</Latitude>
    <Longitude>48.01</Longitude>
    <Role>VOLUNTEER</Role>
    <Active>true</Active>
    <MaxDistance>9795</MaxDistance>
    <TypeOfDistance>AERIALDISTANCE</TypeOfDistance>
  </Volunteer>
  <Volunteer>
    <Id>347514320</Id>
    <FullName>Jackson Scott</FullName>
    <Phone>058-1098765</Phone>
    <Email>jackson.scott@example.com</Email>
    <Password>password01@</Password>
    <FullAddress>Boker 45, Eilat</FullAddress>
    <Latitude>-55.43</Latitude>
    <Longitude>-59.37</Longitude>
    <Role>VOLUNTEER</Role>
    <Active>true</Active>
    <MaxDistance>1421</MaxDistance>
    <TypeOfDistance>AERIALDISTANCE</TypeOfDistance>
  </Volunteer>
  <Volunteer>
    <Id>231103550</Id>
    <FullName>Grace Turner</FullName>
    <Phone>059-0987654</Phone>
    <Email>grace.turner@example.com</Email>
    <Password>welcome@123</Password>
    <FullAddress>Masila 32, Modiin</FullAddress>
    <Latitude>60.44</Latitude>
    <Longitude>16.94</Longitude>
    <Role>VOLUNTEER</Role>
    <Active>true</Active>
    <MaxDistance>1098</MaxDistance>
    <TypeOfDistance>AERIALDISTANCE</TypeOfDistance>
  </Volunteer>
  <Volunteer>
    <Id>314630527</Id>
    <FullName>Mason Miller</FullName>
    <Phone>050-9876543</Phone>
    <Email>mason.miller@example.com</Email>
    <Password>1234password</Password>
    <FullAddress>Yarden 3, Nahariya</FullAddress>
    <Latitude>19.92</Latitude>
    <Longitude>-80.23</Longitude>
    <Role>DISTRICTMANAGER</Role>
    <Active>false</Active>
    <MaxDistance>6252</MaxDistance>
    <TypeOfDistance>AERIALDISTANCE</TypeOfDistance>
  </Volunteer>
  <Volunteer>
    <Id>202632758</Id>
    <FullName>Liam King</FullName>
    <Phone>051-8765432</Phone>
    <Email>liam.king@example.com</Email>
    <Password>secret1234</Password>
    <FullAddress>Ayin 50, Migdal HaEmek</FullAddress>
    <Latitude>-9.35</Latitude>
    <Longitude>114.79</Longitude>
    <Role>VOLUNTEER</Role>
    <Active>true</Active>
    <MaxDistance>6338</MaxDistance>
    <TypeOfDistance>AERIALDISTANCE</TypeOfDistance>
  </Volunteer>
  <Volunteer>
    <Id>314532238</Id>
    <FullName>Charlotte Walker</FullName>
    <Phone>052-7654321</Phone>
    <Email>charlotte.walker@example.com</Email>
    <Password>tbot2023</Password>
    <FullAddress>Dekel 99, Petah Tikva</FullAddress>
    <Latitude>68.78</Latitude>
    <Longitude>-160.5</Longitude>
    <Role>DISTRICTMANAGER</Role>
    <Active>true</Active>
    <MaxDistance>12068</MaxDistance>
    <TypeOfDistance>AERIALDISTANCE</TypeOfDistance>
  </Volunteer>
  <Volunteer>
    <Id>313103022</Id>
    <FullName>Daniel Evans</FullName>
    <Phone>053-6543210</Phone>
    <Email>daniel.evans@example.com</Email>
    <Password>securechatgpt</Password>
    <FullAddress>Kfar 8, Gedera</FullAddress>
    <Latitude>-14.47</Latitude>
    <Longitude>70.77</Longitude>
    <Role>VOLUNTEER</Role>
    <Active>true</Active>
    <MaxDistance>10986</MaxDistance>
    <TypeOfDistance>AERIALDISTANCE</TypeOfDistance>
  </Volunteer>
  <Volunteer>
    <Id>364677337</Id>
    <FullName>Ella Green</FullName>
    <Phone>054-5432109</Phone>
    <Email>ella.green@example.com</Email>
    <Password>pass1234</Password>
    <FullAddress>Nof 3, Herzliya</FullAddress>
    <Latitude>36.09</Latitude>
    <Longitude>53.2</Longitude>
    <Role>VOLUNTEER</Role>
    <Active>false</Active>
    <MaxDistance>3239</MaxDistance>
    <TypeOfDistance>AERIALDISTANCE</TypeOfDistance>
  </Volunteer>
  <Volunteer>
    <Id>355521779</Id>
    <FullName>Oliver Evans</FullName>
    <Phone>055-4321098</Phone>
    <Email>oliver.evans@example.com</Email>
    <Password>qwertz!234</Password>
    <FullAddress>Geva 60, Ashkelon</FullAddress>
    <Latitude>56.47</Latitude>
    <Longitude>-9.88</Longitude>
    <Role>VOLUNTEER</Role>
    <Active>false</Active>
    <MaxDistance>6146</MaxDistance>
    <TypeOfDistance>AERIALDISTANCE</TypeOfDistance>
  </Volunteer>
  <Volunteer>
    <Id>285460316</Id>
    <FullName>Harper Lewis</FullName>
    <Phone>056-3210987</Phone>
    <Email>harper.lewis@example.com</Email>
    <Password>supersecurepass</Password>
    <FullAddress>Hok 11, Haifa</FullAddress>
    <Latitude>-3.25</Latitude>
    <Longitude>34.06</Longitude>
    <Role>DISTRICTMANAGER</Role>
    <Active>true</Active>
    <MaxDistance>5620</MaxDistance>
    <TypeOfDistance>AERIALDISTANCE</TypeOfDistance>
  </Volunteer>
  <Volunteer>
    <Id>246161233</Id>
    <FullName>Benjamin Lee</FullName>
    <Phone>057-2109876</Phone>
    <Email>benjamin.lee@example.com</Email>
    <Password>access1234</Password>
    <FullAddress>Geshem 15, Safed</FullAddress>
    <Latitude>45.62</Latitude>
    <Longitude>-126.77</Longitude>
    <Role>VOLUNTEER</Role>
    <Active>false</Active>
    <MaxDistance>2947</MaxDistance>
    <TypeOfDistance>AERIALDISTANCE</TypeOfDistance>
  </Volunteer>
  <Volunteer>
    <Id>354239259</Id>
    <FullName>Victoria Allen</FullName>
    <Phone>058-1098765</Phone>
    <Email>victoria.allen@example.com</Email>
    <Password>strong2024pass</Password>
    <FullAddress>Horef 2, Jerusalem</FullAddress>
    <Latitude>-21.88</Latitude>
    <Longitude>96.23</Longitude>
    <Role>DISTRICTMANAGER</Role>
    <Active>false</Active>
    <MaxDistance>5110</MaxDistance>
    <TypeOfDistance>AERIALDISTANCE</TypeOfDistance>
  </Volunteer>
  <Volunteer>
    <Id>371485000</Id>
    <FullName>James White</FullName>
    <Phone>059-0987654</Phone>
    <Email>james.white@example.com</Email>
    <Password>ilovechatgpt123</Password>
    <FullAddress>Heder 30, Caesarea</FullAddress>
    <Latitude>11.68</Latitude>
    <Longitude>25.76</Longitude>
    <Role>VOLUNTEER</Role>
    <Active>true</Active>
    <MaxDistance>11661</MaxDistance>
    <TypeOfDistance>AERIALDISTANCE</TypeOfDistance>
  </Volunteer>
  <Volunteer>
    <Id>238613902</Id>
    <FullName>Natalie Scott</FullName>
    <Phone>054-0988684</Phone>
    <Email>natalie.scott@example.com</Email>
    <Password>admin1password</Password>
    <FullAddress>Binyan 7, Ashdod</FullAddress>
    <Latitude>53.94</Latitude>
    <Longitude>-110.89</Longitude>
    <Role>VOLUNTEER</Role>
    <Active>true</Active>
    <MaxDistance>9444</MaxDistance>
    <TypeOfDistance>AERIALDISTANCE</TypeOfDistance>
  </Volunteer>
  <Volunteer>
    <Id>228479256</Id>
    <FullName>Evan Phillips</FullName>
    <Phone>052-9989654</Phone>
    <Email>evan.phillips@example.com</Email>
    <Password>testpass1234</Password>
    <FullAddress>Derech 56, Tel Aviv</FullAddress>
    <Latitude>23.77</Latitude>
    <Longitude>6.83</Longitude>
    <Role>VOLUNTEER</Role>
    <Active>true</Active>
    <MaxDistance>10692</MaxDistance>
    <TypeOfDistance>AERIALDISTANCE</TypeOfDistance>
  </Volunteer>
  <Volunteer>
    <Id>214444316</Id>
    <FullName>John Doe</FullName>
    <Phone>052-1234567</Phone>
    <Email>john.doe@example.com</Email>
    <Password>password123</Password>
    <FullAddress>Main Street 1, Tel Aviv</FullAddress>
    <Latitude>-45.27</Latitude>
    <Longitude>13.45</Longitude>
    <Role>DISTRICTMANAGER</Role>
    <Active>true</Active>
    <MaxDistance>7731</MaxDistance>
    <TypeOfDistance>AERIALDISTANCE</TypeOfDistance>
  </Volunteer>
  <Volunteer>
    <Id>254231875</Id>
    <FullName>Jane Smith</FullName>
    <Phone>053-2345678</Phone>
    <Email>jane.smith@example.com</Email>
    <Password>abc123</Password>
    <FullAddress>Har 2, Jerusalem</FullAddress>
    <Latitude>32.41</Latitude>
    <Longitude>-118.65</Longitude>
    <Role>VOLUNTEER</Role>
    <Active>false</Active>
    <MaxDistance>2157</MaxDistance>
    <TypeOfDistance>AERIALDISTANCE</TypeOfDistance>
  </Volunteer>
  <Volunteer>
    <Id>228418322</Id>
    <FullName>Michael Johnson</FullName>
    <Phone>054-3456789</Phone>
    <Email>michael.johnson@example.com</Email>
    <Password>qwerty123</Password>
    <FullAddress>Independence 45, Haifa</FullAddress>
    <Latitude>-12.55</Latitude>
    <Longitude>23.53</Longitude>
    <Role>VOLUNTEER</Role>
    <Active>true</Active>
    <MaxDistance>12451</MaxDistance>
    <TypeOfDistance>AERIALDISTANCE</TypeOfDistance>
  </Volunteer>
  <Volunteer>
    <Id>282277178</Id>
    <FullName>Emily Davis</FullName>
    <Phone>055-4567890</Phone>
    <Email>emily.davis@example.com</Email>
    <Password>letmein2024</Password>
    <FullAddress>Galil 12, Petah Tikva</FullAddress>
    <Latitude>57.8</Latitude>
    <Longitude>89.45</Longitude>
    <Role>DISTRICTMANAGER</Role>
    <Active>true</Active>
    <MaxDistance>2559</MaxDistance>
    <TypeOfDistance>AERIALDISTANCE</TypeOfDistance>
  </Volunteer>
  <Volunteer>
    <Id>372100334</Id>
    <FullName>Chris Brown</FullName>
    <Phone>056-5678901</Phone>
    <Email>chris.brown@example.com</Email>
    <Password>welcome1</Password>
    <FullAddress>Harbor 8, Ashdod</FullAddress>
    <Latitude>29.82</Latitude>
    <Longitude>-62.34</Longitude>
    <Role>VOLUNTEER</Role>
    <Active>true</Active>
    <MaxDistance>7542</MaxDistance>
    <TypeOfDistance>AERIALDISTANCE</TypeOfDistance>
  </Volunteer>
  <Volunteer>
    <Id>216817217</Id>
    <FullName>Jessica Taylor</FullName>
    <Phone>057-6789012</Phone>
    <Email>jessica.taylor@example.com</Email>
    <Password>1234abcd</Password>
    <FullAddress>Hadar 34, Ramat Gan</FullAddress>
    <Latitude>-20.94</Latitude>
    <Longitude>31.22</Longitude>
    <Role>VOLUNTEER</Role>
    <Active>false</Active>
    <MaxDistance>6037</MaxDistance>
    <TypeOfDistance>AERIALDISTANCE</TypeOfDistance>
  </Volunteer>
  <Volunteer>
    <Id>354588514</Id>
    <FullName>David Wilson</FullName>
    <Phone>058-7890123</Phone>
    <Email>david.wilson@example.com</Email>
    <Password>iloveyou99</Password>
    <FullAddress>Zamir 56, Netanya</FullAddress>
    <Latitude>48.16</Latitude>
    <Longitude>-15.78</Longitude>
    <Role>VOLUNTEER</Role>
    <Active>true</Active>
    <MaxDistance>6901</MaxDistance>
    <TypeOfDistance>AERIALDISTANCE</TypeOfDistance>
  </Volunteer>
  <Volunteer>
    <Id>216414779</Id>
    <FullName>Sophia Moore</FullName>
    <Phone>059-8901234</Phone>
    <Email>sophia.moore@example.com</Email>
    <Password>admin123</Password>
    <FullAddress>Yarkon 10, Holon</FullAddress>
    <Latitude>-38.69</Latitude>
    <Longitude>78.64</Longitude>
    <Role>VOLUNTEER</Role>
    <Active>false</Active>
    <MaxDistance>1873</MaxDistance>
    <TypeOfDistance>AERIALDISTANCE</TypeOfDistance>
  </Volunteer>
  <Volunteer>
    <Id>368796494</Id>
    <FullName>Daniel Anderson</FullName>
    <Phone>050-9876543</Phone>
    <Email>daniel.anderson@example.com</Email>
    <Password>secretpass</Password>
    <FullAddress>Hameshe 77, Be'er Sheva</FullAddress>
    <Latitude>53.03</Latitude>
    <Longitude>-106.83</Longitude>
    <Role>DISTRICTMANAGER</Role>
    <Active>true</Active>
    <MaxDistance>1252</MaxDistance>
    <TypeOfDistance>AERIALDISTANCE</TypeOfDistance>
  </Volunteer>
  <Volunteer>
    <Id>386255367</Id>
    <FullName>Olivia Lee</FullName>
    <Phone>051-8765432</Phone>
    <Email>olivia.lee@example.com</Email>
    <Password>letmein22</Password>
    <FullAddress>Shalom 100, Rishon Lezion</FullAddress>
    <Latitude>24.91</Latitude>
    <Longitude>45.99</Longitude>
    <Role>VOLUNTEER</Role>
    <Active>false</Active>
    <MaxDistance>7204</MaxDistance>
    <TypeOfDistance>AERIALDISTANCE</TypeOfDistance>
  </Volunteer>
  <Volunteer>
    <Id>373751465</Id>
    <FullName>Matthew Harris</FullName>
    <Phone>052-7654321</Phone>
    <Email>matthew.harris@example.com</Email>
    <Password>secure2023</Password>
    <FullAddress>Kokhav 33, Kfar Saba</FullAddress>
    <Latitude>-64.39</Latitude>
    <Longitude>-134.56</Longitude>
    <Role>VOLUNTEER</Role>
    <Active>false</Active>
    <MaxDistance>9230</MaxDistance>
    <TypeOfDistance>AERIALDISTANCE</TypeOfDistance>
  </Volunteer>
  <Volunteer>
    <Id>356589497</Id>
    <FullName>Lily Clark</FullName>
    <Phone>053-6543210</Phone>
    <Email>lily.clark@example.com</Email>
    <Password>testpass1</Password>
    <FullAddress>Meretz 21, Hadera</FullAddress>
    <Latitude>71.12</Latitude>
    <Longitude>72.88</Longitude>
    <Role>VOLUNTEER</Role>
    <Active>false</Active>
    <MaxDistance>1113</MaxDistance>
    <TypeOfDistance>AERIALDISTANCE</TypeOfDistance>
  </Volunteer>
  <Volunteer>
    <Id>326114495</Id>
    <FullName>James Walker</FullName>
    <Phone>054-5432109</Phone>
    <Email>james.walker@example.com</Email>
    <Password>password2024</Password>
    <FullAddress>Chaim 5, Rehovot</FullAddress>
    <Latitude>-3.67</Latitude>
    <Longitude>-50.32</Longitude>
    <Role>DISTRICTMANAGER</Role>
    <Active>false</Active>
    <MaxDistance>2664</MaxDistance>
    <TypeOfDistance>AERIALDISTANCE</TypeOfDistance>
  </Volunteer>
  <Volunteer>
    <Id>231120514</Id>
    <FullName>Chloe Hall</FullName>
    <Phone>055-4321098</Phone>
    <Email>chloe.hall@example.com</Email>
    <Password>mysecret123</Password>
    <FullAddress>Egzoz 18, Eilat</FullAddress>
    <Latitude>33.56</Latitude>
    <Longitude>12.96</Longitude>
    <Role>VOLUNTEER</Role>
    <Active>true</Active>
    <MaxDistance>10742</MaxDistance>
    <TypeOfDistance>AERIALDISTANCE</TypeOfDistance>
  </Volunteer>
  <Volunteer>
    <Id>252798652</Id>
    <FullName>Benjamin Young</FullName>
    <Phone>056-3210987</Phone>
    <Email>benjamin.young@example.com</Email>
    <Password>access123</Password>
    <FullAddress>Merkaz 99, Modiin</FullAddress>
    <Latitude>12.73</Latitude>
    <Longitude>-82.42</Longitude>
    <Role>VOLUNTEER</Role>
    <Active>true</Active>
    <MaxDistance>5381</MaxDistance>
    <TypeOfDistance>AERIALDISTANCE</TypeOfDistance>
  </Volunteer>
  <Volunteer>
    <Id>260536022</Id>
    <FullName>Mia Scott</FullName>
    <Phone>057-2109876</Phone>
    <Email>mia.scott@example.com</Email>
    <Password>12345qwerty</Password>
    <FullAddress>Dekel 4, Netivot</FullAddress>
    <Latitude>-51.3</Latitude>
    <Longitude>10.15</Longitude>
    <Role>DISTRICTMANAGER</Role>
    <Active>true</Active>
    <MaxDistance>6366</MaxDistance>
    <TypeOfDistance>AERIALDISTANCE</TypeOfDistance>
  </Volunteer>
  <Volunteer>
    <Id>328497028</Id>
    <FullName>Ethan Adams</FullName>
    <Phone>058-1098765</Phone>
    <Email>ethan.adams@example.com</Email>
    <Password>iloveme</Password>
    <FullAddress>Hahatzav 20, Kiryat Gat</FullAddress>
    <Latitude>-5.64</Latitude>
    <Longitude>47.72</Longitude>
    <Role>VOLUNTEER</Role>
    <Active>true</Active>
    <MaxDistance>11350</MaxDistance>
    <TypeOfDistance>AERIALDISTANCE</TypeOfDistance>
  </Volunteer>
  <Volunteer>
    <Id>282331601</Id>
    <FullName>Isabella King</FullName>
    <Phone>059-0987654</Phone>
    <Email>isabella.king@example.com</Email>
    <Password>mypassword01</Password>
    <FullAddress>Hahof 3, Bat Yam</FullAddress>
    <Latitude>40.58</Latitude>
    <Longitude>-68.09</Longitude>
    <Role>VOLUNTEER</Role>
    <Active>false</Active>
    <MaxDistance>4147</MaxDistance>
    <TypeOfDistance>AERIALDISTANCE</TypeOfDistance>
  </Volunteer>
  <Volunteer>
    <Id>319267868</Id>
    <FullName>Aiden Martinez</FullName>
    <Phone>050-9876543</Phone>
    <Email>aiden.martinez@example.com</Email>
    <Password>adminpassword</Password>
    <FullAddress>Hamavak 8, Ashkelon</FullAddress>
    <Latitude>11.09</Latitude>
    <Longitude>134.54</Longitude>
    <Role>VOLUNTEER</Role>
    <Active>true</Active>
    <MaxDistance>12306</MaxDistance>
    <TypeOfDistance>AERIALDISTANCE</TypeOfDistance>
  </Volunteer>
  <Volunteer>
    <Id>279310566</Id>
    <FullName>Charlotte Lee</FullName>
    <Phone>051-8765432</Phone>
    <Email>charlotte.lee@example.com</Email>
    <Password>password!23</Password>
    <FullAddress>Hakikar 12, Ramla</FullAddress>
    <Latitude>-72.96</Latitude>
    <Longitude>-23.11</Longitude>
    <Role>VOLUNTEER</Role>
    <Active>true</Active>
    <MaxDistance>12002</MaxDistance>
    <TypeOfDistance>AERIALDISTANCE</TypeOfDistance>
  </Volunteer>
  <Volunteer>
    <Id>293646038</Id>
    <FullName>Lucas Perez</FullName>
    <Phone>052-7654321</Phone>
    <Email>lucas.perez@example.com</Email>
    <Password>123qwerty</Password>
    <FullAddress>Arava 25, Afula</FullAddress>
    <Latitude>34.88</Latitude>
    <Longitude>39.87</Longitude>
    <Role>DISTRICTMANAGER</Role>
    <Active>true</Active>
    <MaxDistance>12166</MaxDistance>
    <TypeOfDistance>AERIALDISTANCE</TypeOfDistance>
  </Volunteer>
  <Volunteer>
    <Id>217424956</Id>
    <FullName>Amelia Rodriguez</FullName>
    <Phone>053-6543210</Phone>
    <Email>amelia.rodriguez@example.com</Email>
    <Password>letmein2023</Password>
    <FullAddress>Hayam 30, Tiberias</FullAddress>
    <Latitude>-28.14</Latitude>
    <Longitude>-116.97</Longitude>
    <Role>VOLUNTEER</Role>
    <Active>true</Active>
    <MaxDistance>4244</MaxDistance>
    <TypeOfDistance>AERIALDISTANCE</TypeOfDistance>
  </Volunteer>
  <Volunteer>
    <Id>304946522</Id>
    <FullName>Henry Green</FullName>
    <Phone>054-5432109</Phone>
    <Email>henry.green@example.com</Email>
    <Password>strongpass22</Password>
    <FullAddress>Marpe 40, Raanana</FullAddress>
    <Latitude>61.29</Latitude>
    <Longitude>107.33</Longitude>
    <Role>VOLUNTEER</Role>
    <Active>true</Active>
    <MaxDistance>3382</MaxDistance>
    <TypeOfDistance>AERIALDISTANCE</TypeOfDistance>
  </Volunteer>
  <Volunteer>
    <Id>378351546</Id>
    <FullName>Aria Hall</FullName>
    <Phone>055-4321098</Phone>
    <Email>aria.hall@example.com</Email>
    <Password>qwertz123</Password>
    <FullAddress>Technology 67, Petah Tikva</FullAddress>
    <Latitude>43.67</Latitude>
    <Longitude>-3.77</Longitude>
    <Role>VOLUNTEER</Role>
    <Active>true</Active>
    <MaxDistance>10024</MaxDistance>
    <TypeOfDistance>AERIALDISTANCE</TypeOfDistance>
  </Volunteer>
  <Volunteer>
    <Id>237058836</Id>
    <FullName>Samuel Harris</FullName>
    <Phone>056-3210987</Phone>
    <Email>samuel.harris@example.com</Email>
    <Password>abcpassword</Password>
    <FullAddress>Gefen 22, Be'er Sheva</FullAddress>
    <Latitude>-44.51</Latitude>
    <Longitude>63.62</Longitude>
    <Role>VOLUNTEER</Role>
    <Active>true</Active>
    <MaxDistance>7135</MaxDistance>
    <TypeOfDistance>AERIALDISTANCE</TypeOfDistance>
  </Volunteer>
  <Volunteer>
    <Id>249996316</Id>
    <FullName>Ella Carter</FullName>
    <Phone>057-2109876</Phone>
    <Email>ella.carter@example.com</Email>
    <Password>mypassword@2024</Password>
    <FullAddress>Mitzpe 6, Givatayim</FullAddress>
    <Latitude>37.98</Latitude>
    <Longitude>80.11</Longitude>
    <Role>VOLUNTEER</Role>
    <Active>true</Active>
    <MaxDistance>7911</MaxDistance>
    <TypeOfDistance>AERIALDISTANCE</TypeOfDistance>
  </Volunteer>
  <Volunteer>
    <Id>289371870</Id>
    <FullName>David Walker</FullName>
    <Phone>058-1098765</Phone>
    <Email>david.walker@example.com</Email>
    <Password>passw0rd123</Password>
    <FullAddress>Ogen 75, Azor</FullAddress>
    <Latitude>27.16</Latitude>
    <Longitude>-131.07</Longitude>
    <Role>VOLUNTEER</Role>
    <Active>true</Active>
    <MaxDistance>11623</MaxDistance>
    <TypeOfDistance>AERIALDISTANCE</TypeOfDistance>
  </Volunteer>
  <Volunteer>
    <Id>361170111</Id>
    <FullName>Avery Thompson</FullName>
    <Phone>059-0987654</Phone>
    <Email>avery.thompson@example.com</Email>
    <Password>iloveyou1234</Password>
    <FullAddress>Herpatka 11, Jerusalem</FullAddress>
    <Latitude>-67.89</Latitude>
    <Longitude>-42.55</Longitude>
    <Role>DISTRICTMANAGER</Role>
    <Active>false</Active>
    <MaxDistance>11354</MaxDistance>
    <TypeOfDistance>AERIALDISTANCE</TypeOfDistance>
  </Volunteer>
  <Volunteer>
    <Id>363676528</Id>
    <FullName>Oliver Collins</FullName>
    <Phone>050-9876543</Phone>
    <Email>oliver.collins@example.com</Email>
    <Password>testpassword12</Password>
    <FullAddress>Sela 58, Tirat Carmel</FullAddress>
    <Latitude>-1.34</Latitude>
    <Longitude>141.08</Longitude>
    <Role>VOLUNTEER</Role>
    <Active>true</Active>
    <MaxDistance>125</MaxDistance>
    <TypeOfDistance>AERIALDISTANCE</TypeOfDistance>
  </Volunteer>
  <Volunteer>
    <Id>234844272</Id>
    <FullName>Sophie White</FullName>
    <Phone>051-8765432</Phone>
    <Email>sophie.white@example.com</Email>
    <Password>openai123</Password>
    <FullAddress>Atid 3, Kiryat Shmona</FullAddress>
    <Latitude>49.02</Latitude>
    <Longitude>24.39</Longitude>
    <Role>VOLUNTEER</Role>
    <Active>true</Active>
    <MaxDistance>11125</MaxDistance>
    <TypeOfDistance>AERIALDISTANCE</TypeOfDistance>
  </Volunteer>
  <Volunteer>
    <Id>342358552</Id>
    <FullName>William Wright</FullName>
    <Phone>052-7654321</Phone>
    <Email>william.wright@example.com</Email>
    <Password>adminsecure</Password>
    <FullAddress>Kokhavim 25, Haifa</FullAddress>
    <Latitude>50.87</Latitude>
    <Longitude>51.61</Longitude>
    <Role>VOLUNTEER</Role>
    <Active>true</Active>
    <MaxDistance>10321</MaxDistance>
    <TypeOfDistance>AERIALDISTANCE</TypeOfDistance>
  </Volunteer>
  <Volunteer>
    <Id>245237425</Id>
    <FullName>Megan Nelson</FullName>
    <Phone>053-6543210</Phone>
    <Email>megan.nelson@example.com</Email>
    <Password>securepassword01</Password>
    <FullAddress>Hama'arav 9, Acre</FullAddress>
    <Latitude>-32.54</Latitude>
    <Longitude>-73.9</Longitude>
    <Role>DISTRICTMANAGER</Role>
    <Active>false</Active>
    <MaxDistance>7372</MaxDistance>
    <TypeOfDistance>AERIALDISTANCE</TypeOfDistance>
  </Volunteer>
  <Volunteer>
    <Id>269437349</Id>
    <FullName>Jack Brown</FullName>
    <Phone>054-5432109</Phone>
    <Email>jack.brown@example.com</Email>
    <Password>bestpassword!</Password>
    <FullAddress>Penina 14, Bnei Brak</FullAddress>
    <Latitude>65.72</Latitude>
    <Longitude>137.32</Longitude>
    <Role>VOLUNTEER</Role>
    <Active>false</Active>
    <MaxDistance>9692</MaxDistance>
    <TypeOfDistance>AERIALDISTANCE</TypeOfDistance>
  </Volunteer>
  <Volunteer>
    <Id>317301796</Id>
    <FullName>Madison Roberts</FullName>
    <Phone>055-4321098</Phone>
    <Email>madison.roberts@example.com</Email>
    <Password>chatrocks</Password>
    <FullAddress>Ir 90, Lod</FullAddress>
    <Latitude>21.55</Latitude>
    <Longitude>-114.98</Longitude>
    <Role>VOLUNTEER</Role>
    <Active>true</Active>
    <MaxDistance>5557</MaxDistance>
    <TypeOfDistance>AERIALDISTANCE</TypeOfDistance>
  </Volunteer>
  <Volunteer>
    <Id>288461705</Id>
    <FullName>Jacob Carter</FullName>
    <Phone>056-3210987</Phone>
    <Email>jacob.carter@example.com</Email>
    <Password>strongpass1</Password>
    <FullAddress>Gan 11, Kfar Yona</FullAddress>
    <Latitude>-16.9</Latitude>
    <Longitude>-120.6</Longitude>
    <Role>VOLUNTEER</Role>
    <Active>false</Active>
    <MaxDistance>5587</MaxDistance>
    <TypeOfDistance>AERIALDISTANCE</TypeOfDistance>
  </Volunteer>
  <Volunteer>
    <Id>347786366</Id>
    <FullName>Sophia Brooks</FullName>
    <Phone>057-2109876</Phone>
    <Email>sophia.brooks@example.com</Email>
    <Password>newpassword2024</Password>
    <FullAddress>Flag 77, Netanya</FullAddress>
    <Latitude>54.03</Latitude>
    <Longitude>48.01</Longitude>
    <Role>VOLUNTEER</Role>
    <Active>true</Active>
    <MaxDistance>4619</MaxDistance>
    <TypeOfDistance>AERIALDISTANCE</TypeOfDistance>
  </Volunteer>
  <Volunteer>
    <Id>307604939</Id>
    <FullName>Jackson Scott</FullName>
    <Phone>058-1098765</Phone>
    <Email>jackson.scott@example.com</Email>
    <Password>password01@</Password>
    <FullAddress>Boker 45, Eilat</FullAddress>
    <Latitude>-55.43</Latitude>
    <Longitude>-59.37</Longitude>
    <Role>VOLUNTEER</Role>
    <Active>false</Active>
    <MaxDistance>6438</MaxDistance>
    <TypeOfDistance>AERIALDISTANCE</TypeOfDistance>
  </Volunteer>
  <Volunteer>
    <Id>364174304</Id>
    <FullName>Grace Turner</FullName>
    <Phone>059-0987654</Phone>
    <Email>grace.turner@example.com</Email>
    <Password>welcome@123</Password>
    <FullAddress>Masila 32, Modiin</FullAddress>
    <Latitude>60.44</Latitude>
    <Longitude>16.94</Longitude>
    <Role>VOLUNTEER</Role>
    <Active>true</Active>
    <MaxDistance>3228</MaxDistance>
    <TypeOfDistance>AERIALDISTANCE</TypeOfDistance>
  </Volunteer>
  <Volunteer>
    <Id>236190732</Id>
    <FullName>Mason Miller</FullName>
    <Phone>050-9876543</Phone>
    <Email>mason.miller@example.com</Email>
    <Password>1234password</Password>
    <FullAddress>Yarden 3, Nahariya</FullAddress>
    <Latitude>19.92</Latitude>
    <Longitude>-80.23</Longitude>
    <Role>DISTRICTMANAGER</Role>
    <Active>true</Active>
    <MaxDistance>3943</MaxDistance>
    <TypeOfDistance>AERIALDISTANCE</TypeOfDistance>
  </Volunteer>
  <Volunteer>
    <Id>299355653</Id>
    <FullName>Liam King</FullName>
    <Phone>051-8765432</Phone>
    <Email>liam.king@example.com</Email>
    <Password>secret1234</Password>
    <FullAddress>Ayin 50, Migdal HaEmek</FullAddress>
    <Latitude>-9.35</Latitude>
    <Longitude>114.79</Longitude>
    <Role>VOLUNTEER</Role>
    <Active>false</Active>
    <MaxDistance>1054</MaxDistance>
    <TypeOfDistance>AERIALDISTANCE</TypeOfDistance>
  </Volunteer>
  <Volunteer>
    <Id>386713234</Id>
    <FullName>Charlotte Walker</FullName>
    <Phone>052-7654321</Phone>
    <Email>charlotte.walker@example.com</Email>
    <Password>tbot2023</Password>
    <FullAddress>Dekel 99, Petah Tikva</FullAddress>
    <Latitude>68.78</Latitude>
    <Longitude>-160.5</Longitude>
    <Role>DISTRICTMANAGER</Role>
    <Active>true</Active>
    <MaxDistance>8756</MaxDistance>
    <TypeOfDistance>AERIALDISTANCE</TypeOfDistance>
  </Volunteer>
  <Volunteer>
    <Id>322158031</Id>
    <FullName>Daniel Evans</FullName>
    <Phone>053-6543210</Phone>
    <Email>daniel.evans@example.com</Email>
    <Password>securechatgpt</Password>
    <FullAddress>Kfar 8, Gedera</FullAddress>
    <Latitude>-14.47</Latitude>
    <Longitude>70.77</Longitude>
    <Role>VOLUNTEER</Role>
    <Active>false</Active>
    <MaxDistance>7309</MaxDistance>
    <TypeOfDistance>AERIALDISTANCE</TypeOfDistance>
  </Volunteer>
  <Volunteer>
    <Id>362399946</Id>
    <FullName>Ella Green</FullName>
    <Phone>054-5432109</Phone>
    <Email>ella.green@example.com</Email>
    <Password>pass1234</Password>
    <FullAddress>Nof 3, Herzliya</FullAddress>
    <Latitude>36.09</Latitude>
    <Longitude>53.2</Longitude>
    <Role>VOLUNTEER</Role>
    <Active>true</Active>
    <MaxDistance>9748</MaxDistance>
    <TypeOfDistance>AERIALDISTANCE</TypeOfDistance>
  </Volunteer>
  <Volunteer>
    <Id>321005960</Id>
    <FullName>Oliver Evans</FullName>
    <Phone>055-4321098</Phone>
    <Email>oliver.evans@example.com</Email>
    <Password>qwertz!234</Password>
    <FullAddress>Geva 60, Ashkelon</FullAddress>
    <Latitude>56.47</Latitude>
    <Longitude>-9.88</Longitude>
    <Role>VOLUNTEER</Role>
    <Active>true</Active>
    <MaxDistance>1260</MaxDistance>
    <TypeOfDistance>AERIALDISTANCE</TypeOfDistance>
  </Volunteer>
  <Volunteer>
    <Id>233784278</Id>
    <FullName>Harper Lewis</FullName>
    <Phone>056-3210987</Phone>
    <Email>harper.lewis@example.com</Email>
    <Password>supersecurepass</Password>
    <FullAddress>Hok 11, Haifa</FullAddress>
    <Latitude>-3.25</Latitude>
    <Longitude>34.06</Longitude>
    <Role>DISTRICTMANAGER</Role>
    <Active>true</Active>
    <MaxDistance>8034</MaxDistance>
    <TypeOfDistance>AERIALDISTANCE</TypeOfDistance>
  </Volunteer>
  <Volunteer>
    <Id>203838798</Id>
    <FullName>Benjamin Lee</FullName>
    <Phone>057-2109876</Phone>
    <Email>benjamin.lee@example.com</Email>
    <Password>access1234</Password>
    <FullAddress>Geshem 15, Safed</FullAddress>
    <Latitude>45.62</Latitude>
    <Longitude>-126.77</Longitude>
    <Role>VOLUNTEER</Role>
    <Active>true</Active>
    <MaxDistance>2758</MaxDistance>
    <TypeOfDistance>AERIALDISTANCE</TypeOfDistance>
  </Volunteer>
  <Volunteer>
    <Id>223225062</Id>
    <FullName>Victoria Allen</FullName>
    <Phone>058-1098765</Phone>
    <Email>victoria.allen@example.com</Email>
    <Password>strong2024pass</Password>
    <FullAddress>Horef 2, Jerusalem</FullAddress>
    <Latitude>-21.88</Latitude>
    <Longitude>96.23</Longitude>
    <Role>DISTRICTMANAGER</Role>
    <Active>true</Active>
    <MaxDistance>11326</MaxDistance>
    <TypeOfDistance>AERIALDISTANCE</TypeOfDistance>
  </Volunteer>
  <Volunteer>
    <Id>348923880</Id>
    <FullName>James White</FullName>
    <Phone>059-0987654</Phone>
    <Email>james.white@example.com</Email>
    <Password>ilovechatgpt123</Password>
    <FullAddress>Heder 30, Caesarea</FullAddress>
    <Latitude>11.68</Latitude>
    <Longitude>25.76</Longitude>
    <Role>VOLUNTEER</Role>
    <Active>true</Active>
    <MaxDistance>7126</MaxDistance>
    <TypeOfDistance>AERIALDISTANCE</TypeOfDistance>
  </Volunteer>
  <Volunteer>
    <Id>291520358</Id>
    <FullName>Natalie Scott</FullName>
    <Phone>054-0988684</Phone>
    <Email>natalie.scott@example.com</Email>
    <Password>admin1password</Password>
    <FullAddress>Binyan 7, Ashdod</FullAddress>
    <Latitude>53.94</Latitude>
    <Longitude>-110.89</Longitude>
    <Role>VOLUNTEER</Role>
    <Active>true</Active>
    <MaxDistance>9257</MaxDistance>
    <TypeOfDistance>AERIALDISTANCE</TypeOfDistance>
  </Volunteer>
  <Volunteer>
    <Id>322208210</Id>
    <FullName>Evan Phillips</FullName>
    <Phone>052-9989654</Phone>
    <Email>evan.phillips@example.com</Email>
    <Password>testpass1234</Password>
    <FullAddress>Derech 56, Tel Aviv</FullAddress>
    <Latitude>23.77</Latitude>
    <Longitude>6.83</Longitude>
    <Role>VOLUNTEER</Role>
    <Active>true</Active>
    <MaxDistance>4394</MaxDistance>
    <TypeOfDistance>AERIALDISTANCE</TypeOfDistance>
  </Volunteer>
  <Volunteer>
    <Id>259663111</Id>
    <FullName>John Doe</FullName>
    <Phone>052-1234567</Phone>
    <Email>john.doe@example.com</Email>
    <Password>password123</Password>
    <FullAddress>Main Street 1, Tel Aviv</FullAddress>
    <Latitude>-45.27</Latitude>
    <Longitude>13.45</Longitude>
    <Role>DISTRICTMANAGER</Role>
    <Active>false</Active>
    <MaxDistance>31</MaxDistance>
    <TypeOfDistance>AERIALDISTANCE</TypeOfDistance>
  </Volunteer>
  <Volunteer>
    <Id>258570425</Id>
    <FullName>Jane Smith</FullName>
    <Phone>053-2345678</Phone>
    <Email>jane.smith@example.com</Email>
    <Password>abc123</Password>
    <FullAddress>Har 2, Jerusalem</FullAddress>
    <Latitude>32.41</Latitude>
    <Longitude>-118.65</Longitude>
    <Role>VOLUNTEER</Role>
    <Active>false</Active>
    <MaxDistance>7216</MaxDistance>
    <TypeOfDistance>AERIALDISTANCE</TypeOfDistance>
  </Volunteer>
  <Volunteer>
    <Id>374520797</Id>
    <FullName>Michael Johnson</FullName>
    <Phone>054-3456789</Phone>
    <Email>michael.johnson@example.com</Email>
    <Password>qwerty123</Password>
    <FullAddress>Independence 45, Haifa</FullAddress>
    <Latitude>-12.55</Latitude>
    <Longitude>23.53</Longitude>
    <Role>VOLUNTEER</Role>
    <Active>false</Active>
    <MaxDistance>2552</MaxDistance>
    <TypeOfDistance>AERIALDISTANCE</TypeOfDistance>
  </Volunteer>
  <Volunteer>
    <Id>218123573</Id>
    <FullName>Emily Davis</FullName>
    <Phone>055-4567890</Phone>
    <Email>emily.davis@example.com</Email>
    <Password>letmein2024</Password>
    <FullAddress>Galil 12, Petah Tikva</FullAddress>
    <Latitude>57.8</Latitude>
    <Longitude>89.45</Longitude>
    <Role>DISTRICTMANAGER</Role>
    <Active>false</Active>
    <MaxDistance>8086</MaxDistance>
    <TypeOfDistance>AERIALDISTANCE</TypeOfDistance>
  </Volunteer>
  <Volunteer>
    <Id>352966513</Id>
    <FullName>Chris Brown</FullName>
    <Phone>056-5678901</Phone>
    <Email>chris.brown@example.com</Email>
    <Password>welcome1</Password>
    <FullAddress>Harbor 8, Ashdod</FullAddress>
    <Latitude>29.82</Latitude>
    <Longitude>-62.34</Longitude>
    <Role>VOLUNTEER</Role>
    <Active>false</Active>
    <MaxDistance>10527</MaxDistance>
    <TypeOfDistance>AERIALDISTANCE</TypeOfDistance>
  </Volunteer>
  <Volunteer>
    <Id>363275300</Id>
    <FullName>Jessica Taylor</FullName>
    <Phone>057-6789012</Phone>
    <Email>jessica.taylor@example.com</Email>
    <Password>1234abcd</Password>
    <FullAddress>Hadar 34, Ramat Gan</FullAddress>
    <Latitude>-20.94</Latitude>
    <Longitude>31.22</Longitude>
    <Role>VOLUNTEER</Role>
    <Active>true</Active>
    <MaxDistance>1335</MaxDistance>
    <TypeOfDistance>AERIALDISTANCE</TypeOfDistance>
  </Volunteer>
  <Volunteer>
    <Id>300886097</Id>
    <FullName>David Wilson</FullName>
    <Phone>058-7890123</Phone>
    <Email>david.wilson@example.com</Email>
    <Password>iloveyou99</Password>
    <FullAddress>Zamir 56, Netanya</FullAddress>
    <Latitude>48.16</Latitude>
    <Longitude>-15.78</Longitude>
    <Role>VOLUNTEER</Role>
    <Active>false</Active>
    <MaxDistance>9312</MaxDistance>
    <TypeOfDistance>AERIALDISTANCE</TypeOfDistance>
  </Volunteer>
  <Volunteer>
    <Id>239625944</Id>
    <FullName>Sophia Moore</FullName>
    <Phone>059-8901234</Phone>
    <Email>sophia.moore@example.com</Email>
    <Password>admin123</Password>
    <FullAddress>Yarkon 10, Holon</FullAddress>
    <Latitude>-38.69</Latitude>
    <Longitude>78.64</Longitude>
    <Role>VOLUNTEER</Role>
    <Active>true</Active>
    <MaxDistance>9783</MaxDistance>
    <TypeOfDistance>AERIALDISTANCE</TypeOfDistance>
  </Volunteer>
  <Volunteer>
    <Id>365057948</Id>
    <FullName>Daniel Anderson</FullName>
    <Phone>050-9876543</Phone>
    <Email>daniel.anderson@example.com</Email>
    <Password>secretpass</Password>
    <FullAddress>Hameshe 77, Be'er Sheva</FullAddress>
    <Latitude>53.03</Latitude>
    <Longitude>-106.83</Longitude>
    <Role>DISTRICTMANAGER</Role>
    <Active>true</Active>
    <MaxDistance>960</MaxDistance>
    <TypeOfDistance>AERIALDISTANCE</TypeOfDistance>
  </Volunteer>
  <Volunteer>
    <Id>229773698</Id>
    <FullName>Olivia Lee</FullName>
    <Phone>051-8765432</Phone>
    <Email>olivia.lee@example.com</Email>
    <Password>letmein22</Password>
    <FullAddress>Shalom 100, Rishon Lezion</FullAddress>
    <Latitude>24.91</Latitude>
    <Longitude>45.99</Longitude>
    <Role>VOLUNTEER</Role>
    <Active>true</Active>
    <MaxDistance>7854</MaxDistance>
    <TypeOfDistance>AERIALDISTANCE</TypeOfDistance>
  </Volunteer>
  <Volunteer>
    <Id>206673663</Id>
    <FullName>Matthew Harris</FullName>
    <Phone>052-7654321</Phone>
    <Email>matthew.harris@example.com</Email>
    <Password>secure2023</Password>
    <FullAddress>Kokhav 33, Kfar Saba</FullAddress>
    <Latitude>-64.39</Latitude>
    <Longitude>-134.56</Longitude>
    <Role>VOLUNTEER</Role>
    <Active>false</Active>
    <MaxDistance>5961</MaxDistance>
    <TypeOfDistance>AERIALDISTANCE</TypeOfDistance>
  </Volunteer>
  <Volunteer>
    <Id>310941717</Id>
    <FullName>Lily Clark</FullName>
    <Phone>053-6543210</Phone>
    <Email>lily.clark@example.com</Email>
    <Password>testpass1</Password>
    <FullAddress>Meretz 21, Hadera</FullAddress>
    <Latitude>71.12</Latitude>
    <Longitude>72.88</Longitude>
    <Role>VOLUNTEER</Role>
    <Active>false</Active>
    <MaxDistance>11016</MaxDistance>
    <TypeOfDistance>AERIALDISTANCE</TypeOfDistance>
  </Volunteer>
  <Volunteer>
    <Id>354777793</Id>
    <FullName>James Walker</FullName>
    <Phone>054-5432109</Phone>
    <Email>james.walker@example.com</Email>
    <Password>password2024</Password>
    <FullAddress>Chaim 5, Rehovot</FullAddress>
    <Latitude>-3.67</Latitude>
    <Longitude>-50.32</Longitude>
    <Role>DISTRICTMANAGER</Role>
    <Active>false</Active>
    <MaxDistance>8384</MaxDistance>
    <TypeOfDistance>AERIALDISTANCE</TypeOfDistance>
  </Volunteer>
  <Volunteer>
    <Id>246599537</Id>
    <FullName>Chloe Hall</FullName>
    <Phone>055-4321098</Phone>
    <Email>chloe.hall@example.com</Email>
    <Password>mysecret123</Password>
    <FullAddress>Egzoz 18, Eilat</FullAddress>
    <Latitude>33.56</Latitude>
    <Longitude>12.96</Longitude>
    <Role>VOLUNTEER</Role>
    <Active>false</Active>
    <MaxDistance>10803</MaxDistance>
    <TypeOfDistance>AERIALDISTANCE</TypeOfDistance>
  </Volunteer>
  <Volunteer>
    <Id>293135099</Id>
    <FullName>Benjamin Young</FullName>
    <Phone>056-3210987</Phone>
    <Email>benjamin.young@example.com</Email>
    <Password>access123</Password>
    <FullAddress>Merkaz 99, Modiin</FullAddress>
    <Latitude>12.73</Latitude>
    <Longitude>-82.42</Longitude>
    <Role>VOLUNTEER</Role>
    <Active>false</Active>
    <MaxDistance>2907</MaxDistance>
    <TypeOfDistance>AERIALDISTANCE</TypeOfDistance>
  </Volunteer>
  <Volunteer>
    <Id>291356353</Id>
    <FullName>Mia Scott</FullName>
    <Phone>057-2109876</Phone>
    <Email>mia.scott@example.com</Email>
    <Password>12345qwerty</Password>
    <FullAddress>Dekel 4, Netivot</FullAddress>
    <Latitude>-51.3</Latitude>
    <Longitude>10.15</Longitude>
    <Role>DISTRICTMANAGER</Role>
    <Active>false</Active>
    <MaxDistance>3298</MaxDistance>
    <TypeOfDistance>AERIALDISTANCE</TypeOfDistance>
  </Volunteer>
  <Volunteer>
    <Id>378051737</Id>
    <FullName>Ethan Adams</FullName>
    <Phone>058-1098765</Phone>
    <Email>ethan.adams@example.com</Email>
    <Password>iloveme</Password>
    <FullAddress>Hahatzav 20, Kiryat Gat</FullAddress>
    <Latitude>-5.64</Latitude>
    <Longitude>47.72</Longitude>
    <Role>VOLUNTEER</Role>
    <Active>false</Active>
    <MaxDistance>3097</MaxDistance>
    <TypeOfDistance>AERIALDISTANCE</TypeOfDistance>
  </Volunteer>
  <Volunteer>
    <Id>259765123</Id>
    <FullName>Isabella King</FullName>
    <Phone>059-0987654</Phone>
    <Email>isabella.king@example.com</Email>
    <Password>mypassword01</Password>
    <FullAddress>Hahof 3, Bat Yam</FullAddress>
    <Latitude>40.58</Latitude>
    <Longitude>-68.09</Longitude>
    <Role>VOLUNTEER</Role>
    <Active>false</Active>
    <MaxDistance>7706</MaxDistance>
    <TypeOfDistance>AERIALDISTANCE</TypeOfDistance>
  </Volunteer>
  <Volunteer>
    <Id>369188924</Id>
    <FullName>Aiden Martinez</FullName>
    <Phone>050-9876543</Phone>
    <Email>aiden.martinez@example.com</Email>
    <Password>adminpassword</Password>
    <FullAddress>Hamavak 8, Ashkelon</FullAddress>
    <Latitude>11.09</Latitude>
    <Longitude>134.54</Longitude>
    <Role>VOLUNTEER</Role>
    <Active>true</Active>
    <MaxDistance>1167</MaxDistance>
    <TypeOfDistance>AERIALDISTANCE</TypeOfDistance>
  </Volunteer>
  <Volunteer>
    <Id>207542996</Id>
    <FullName>Charlotte Lee</FullName>
    <Phone>051-8765432</Phone>
    <Email>charlotte.lee@example.com</Email>
    <Password>password!23</Password>
    <FullAddress>Hakikar 12, Ramla</FullAddress>
    <Latitude>-72.96</Latitude>
    <Longitude>-23.11</Longitude>
    <Role>VOLUNTEER</Role>
    <Active>true</Active>
    <MaxDistance>11327</MaxDistance>
    <TypeOfDistance>AERIALDISTANCE</TypeOfDistance>
  </Volunteer>
  <Volunteer>
    <Id>297325053</Id>
    <FullName>Lucas Perez</FullName>
    <Phone>052-7654321</Phone>
    <Email>lucas.perez@example.com</Email>
    <Password>123qwerty</Password>
    <FullAddress>Arava 25, Afula</FullAddress>
    <Latitude>34.88</Latitude>
    <Longitude>39.87</Longitude>
    <Role>DISTRICTMANAGER</Role>
    <Active>false</Active>
    <MaxDistance>7157</MaxDistance>
    <TypeOfDistance>AERIALDISTANCE</TypeOfDistance>
  </Volunteer>
  <Volunteer>
    <Id>249004681</Id>
    <FullName>Amelia Rodriguez</FullName>
    <Phone>053-6543210</Phone>
    <Email>amelia.rodriguez@example.com</Email>
    <Password>letmein2023</Password>
    <FullAddress>Hayam 30, Tiberias</FullAddress>
    <Latitude>-28.14</Latitude>
    <Longitude>-116.97</Longitude>
    <Role>VOLUNTEER</Role>
    <Active>false</Active>
    <MaxDistance>8048</MaxDistance>
    <TypeOfDistance>AERIALDISTANCE</TypeOfDistance>
  </Volunteer>
  <Volunteer>
    <Id>263864970</Id>
    <FullName>Henry Green</FullName>
    <Phone>054-5432109</Phone>
    <Email>henry.green@example.com</Email>
    <Password>strongpass22</Password>
    <FullAddress>Marpe 40, Raanana</FullAddress>
    <Latitude>61.29</Latitude>
    <Longitude>107.33</Longitude>
    <Role>VOLUNTEER</Role>
    <Active>true</Active>
    <MaxDistance>11014</MaxDistance>
    <TypeOfDistance>AERIALDISTANCE</TypeOfDistance>
  </Volunteer>
  <Volunteer>
    <Id>287197745</Id>
    <FullName>Aria Hall</FullName>
    <Phone>055-4321098</Phone>
    <Email>aria.hall@example.com</Email>
    <Password>qwertz123</Password>
    <FullAddress>Technology 67, Petah Tikva</FullAddress>
    <Latitude>43.67</Latitude>
    <Longitude>-3.77</Longitude>
    <Role>VOLUNTEER</Role>
    <Active>false</Active>
    <MaxDistance>636</MaxDistance>
    <TypeOfDistance>AERIALDISTANCE</TypeOfDistance>
  </Volunteer>
  <Volunteer>
    <Id>345753751</Id>
    <FullName>Samuel Harris</FullName>
    <Phone>056-3210987</Phone>
    <Email>samuel.harris@example.com</Email>
    <Password>abcpassword</Password>
    <FullAddress>Gefen 22, Be'er Sheva</FullAddress>
    <Latitude>-44.51</Latitude>
    <Longitude>63.62</Longitude>
    <Role>VOLUNTEER</Role>
    <Active>false</Active>
    <MaxDistance>8464</MaxDistance>
    <TypeOfDistance>AERIALDISTANCE</TypeOfDistance>
  </Volunteer>
  <Volunteer>
    <Id>390687256</Id>
    <FullName>Ella Carter</FullName>
    <Phone>057-2109876</Phone>
    <Email>ella.carter@example.com</Email>
    <Password>mypassword@2024</Password>
    <FullAddress>Mitzpe 6, Givatayim</FullAddress>
    <Latitude>37.98</Latitude>
    <Longitude>80.11</Longitude>
    <Role>VOLUNTEER</Role>
    <Active>true</Active>
    <MaxDistance>6863</MaxDistance>
    <TypeOfDistance>AERIALDISTANCE</TypeOfDistance>
  </Volunteer>
  <Volunteer>
    <Id>278356390</Id>
    <FullName>David Walker</FullName>
    <Phone>058-1098765</Phone>
    <Email>david.walker@example.com</Email>
    <Password>passw0rd123</Password>
    <FullAddress>Ogen 75, Azor</FullAddress>
    <Latitude>27.16</Latitude>
    <Longitude>-131.07</Longitude>
    <Role>VOLUNTEER</Role>
    <Active>true</Active>
    <MaxDistance>5308</MaxDistance>
    <TypeOfDistance>AERIALDISTANCE</TypeOfDistance>
  </Volunteer>
  <Volunteer>
    <Id>294347082</Id>
    <FullName>Avery Thompson</FullName>
    <Phone>059-0987654</Phone>
    <Email>avery.thompson@example.com</Email>
    <Password>iloveyou1234</Password>
    <FullAddress>Herpatka 11, Jerusalem</FullAddress>
    <Latitude>-67.89</Latitude>
    <Longitude>-42.55</Longitude>
    <Role>DISTRICTMANAGER</Role>
    <Active>true</Active>
    <MaxDistance>8755</MaxDistance>
    <TypeOfDistance>AERIALDISTANCE</TypeOfDistance>
  </Volunteer>
  <Volunteer>
    <Id>269070976</Id>
    <FullName>Oliver Collins</FullName>
    <Phone>050-9876543</Phone>
    <Email>oliver.collins@example.com</Email>
    <Password>testpassword12</Password>
    <FullAddress>Sela 58, Tirat Carmel</FullAddress>
    <Latitude>-1.34</Latitude>
    <Longitude>141.08</Longitude>
    <Role>VOLUNTEER</Role>
    <Active>true</Active>
    <MaxDistance>9740</MaxDistance>
    <TypeOfDistance>AERIALDISTANCE</TypeOfDistance>
  </Volunteer>
  <Volunteer>
    <Id>385992970</Id>
    <FullName>Sophie White</FullName>
    <Phone>051-8765432</Phone>
    <Email>sophie.white@example.com</Email>
    <Password>openai123</Password>
    <FullAddress>Atid 3, Kiryat Shmona</FullAddress>
    <Latitude>49.02</Latitude>
    <Longitude>24.39</Longitude>
    <Role>VOLUNTEER</Role>
    <Active>true</Active>
    <MaxDistance>11688</MaxDistance>
    <TypeOfDistance>AERIALDISTANCE</TypeOfDistance>
  </Volunteer>
  <Volunteer>
    <Id>284775621</Id>
    <FullName>William Wright</FullName>
    <Phone>052-7654321</Phone>
    <Email>william.wright@example.com</Email>
    <Password>adminsecure</Password>
    <FullAddress>Kokhavim 25, Haifa</FullAddress>
    <Latitude>50.87</Latitude>
    <Longitude>51.61</Longitude>
    <Role>VOLUNTEER</Role>
    <Active>false</Active>
    <MaxDistance>6168</MaxDistance>
    <TypeOfDistance>AERIALDISTANCE</TypeOfDistance>
  </Volunteer>
  <Volunteer>
    <Id>209119872</Id>
    <FullName>Megan Nelson</FullName>
    <Phone>053-6543210</Phone>
    <Email>megan.nelson@example.com</Email>
    <Password>securepassword01</Password>
    <FullAddress>Hama'arav 9, Acre</FullAddress>
    <Latitude>-32.54</Latitude>
    <Longitude>-73.9</Longitude>
    <Role>DISTRICTMANAGER</Role>
    <Active>true</Active>
    <MaxDistance>11038</MaxDistance>
    <TypeOfDistance>AERIALDISTANCE</TypeOfDistance>
  </Volunteer>
  <Volunteer>
    <Id>339249613</Id>
    <FullName>Jack Brown</FullName>
    <Phone>054-5432109</Phone>
    <Email>jack.brown@example.com</Email>
    <Password>bestpassword!</Password>
    <FullAddress>Penina 14, Bnei Brak</FullAddress>
    <Latitude>65.72</Latitude>
    <Longitude>137.32</Longitude>
    <Role>VOLUNTEER</Role>
    <Active>false</Active>
    <MaxDistance>8959</MaxDistance>
    <TypeOfDistance>AERIALDISTANCE</TypeOfDistance>
  </Volunteer>
  <Volunteer>
    <Id>399814883</Id>
    <FullName>Madison Roberts</FullName>
    <Phone>055-4321098</Phone>
    <Email>madison.roberts@example.com</Email>
    <Password>chatrocks</Password>
    <FullAddress>Ir 90, Lod</FullAddress>
    <Latitude>21.55</Latitude>
    <Longitude>-114.98</Longitude>
    <Role>VOLUNTEER</Role>
    <Active>false</Active>
    <MaxDistance>11635</MaxDistance>
    <TypeOfDistance>AERIALDISTANCE</TypeOfDistance>
  </Volunteer>
  <Volunteer>
    <Id>221444635</Id>
    <FullName>Jacob Carter</FullName>
    <Phone>056-3210987</Phone>
    <Email>jacob.carter@example.com</Email>
    <Password>strongpass1</Password>
    <FullAddress>Gan 11, Kfar Yona</FullAddress>
    <Latitude>-16.9</Latitude>
    <Longitude>-120.6</Longitude>
    <Role>VOLUNTEER</Role>
    <Active>false</Active>
    <MaxDistance>4605</MaxDistance>
    <TypeOfDistance>AERIALDISTANCE</TypeOfDistance>
  </Volunteer>
  <Volunteer>
    <Id>222193235</Id>
    <FullName>Sophia Brooks</FullName>
    <Phone>057-2109876</Phone>
    <Email>sophia.brooks@example.com</Email>
    <Password>newpassword2024</Password>
    <FullAddress>Flag 77, Netanya</FullAddress>
    <Latitude>54.03</Latitude>
    <Longitude>48.01</Longitude>
    <Role>VOLUNTEER</Role>
    <Active>false</Active>
    <MaxDistance>10271</MaxDistance>
    <TypeOfDistance>AERIALDISTANCE</TypeOfDistance>
  </Volunteer>
  <Volunteer>
    <Id>386848376</Id>
    <FullName>Jackson Scott</FullName>
    <Phone>058-1098765</Phone>
    <Email>jackson.scott@example.com</Email>
    <Password>password01@</Password>
    <FullAddress>Boker 45, Eilat</FullAddress>
    <Latitude>-55.43</Latitude>
    <Longitude>-59.37</Longitude>
    <Role>VOLUNTEER</Role>
    <Active>true</Active>
    <MaxDistance>8376</MaxDistance>
    <TypeOfDistance>AERIALDISTANCE</TypeOfDistance>
  </Volunteer>
  <Volunteer>
    <Id>203152274</Id>
    <FullName>Grace Turner</FullName>
    <Phone>059-0987654</Phone>
    <Email>grace.turner@example.com</Email>
    <Password>welcome@123</Password>
    <FullAddress>Masila 32, Modiin</FullAddress>
    <Latitude>60.44</Latitude>
    <Longitude>16.94</Longitude>
    <Role>VOLUNTEER</Role>
    <Active>true</Active>
    <MaxDistance>612</MaxDistance>
    <TypeOfDistance>AERIALDISTANCE</TypeOfDistance>
  </Volunteer>
  <Volunteer>
    <Id>369711819</Id>
    <FullName>Mason Miller</FullName>
    <Phone>050-9876543</Phone>
    <Email>mason.miller@example.com</Email>
    <Password>1234password</Password>
    <FullAddress>Yarden 3, Nahariya</FullAddress>
    <Latitude>19.92</Latitude>
    <Longitude>-80.23</Longitude>
    <Role>DISTRICTMANAGER</Role>
    <Active>false</Active>
    <MaxDistance>551</MaxDistance>
    <TypeOfDistance>AERIALDISTANCE</TypeOfDistance>
  </Volunteer>
  <Volunteer>
    <Id>246265676</Id>
    <FullName>Liam King</FullName>
    <Phone>051-8765432</Phone>
    <Email>liam.king@example.com</Email>
    <Password>secret1234</Password>
    <FullAddress>Ayin 50, Migdal HaEmek</FullAddress>
    <Latitude>-9.35</Latitude>
    <Longitude>114.79</Longitude>
    <Role>VOLUNTEER</Role>
    <Active>true</Active>
    <MaxDistance>10299</MaxDistance>
    <TypeOfDistance>AERIALDISTANCE</TypeOfDistance>
  </Volunteer>
  <Volunteer>
    <Id>335561964</Id>
    <FullName>Charlotte Walker</FullName>
    <Phone>052-7654321</Phone>
    <Email>charlotte.walker@example.com</Email>
    <Password>tbot2023</Password>
    <FullAddress>Dekel 99, Petah Tikva</FullAddress>
    <Latitude>68.78</Latitude>
    <Longitude>-160.5</Longitude>
    <Role>DISTRICTMANAGER</Role>
    <Active>true</Active>
    <MaxDistance>6873</MaxDistance>
    <TypeOfDistance>AERIALDISTANCE</TypeOfDistance>
  </Volunteer>
  <Volunteer>
    <Id>270275936</Id>
    <FullName>Daniel Evans</FullName>
    <Phone>053-6543210</Phone>
    <Email>daniel.evans@example.com</Email>
    <Password>securechatgpt</Password>
    <FullAddress>Kfar 8, Gedera</FullAddress>
    <Latitude>-14.47</Latitude>
    <Longitude>70.77</Longitude>
    <Role>VOLUNTEER</Role>
    <Active>true</Active>
    <MaxDistance>1467</MaxDistance>
    <TypeOfDistance>AERIALDISTANCE</TypeOfDistance>
  </Volunteer>
  <Volunteer>
    <Id>342920417</Id>
    <FullName>Ella Green</FullName>
    <Phone>054-5432109</Phone>
    <Email>ella.green@example.com</Email>
    <Password>pass1234</Password>
    <FullAddress>Nof 3, Herzliya</FullAddress>
    <Latitude>36.09</Latitude>
    <Longitude>53.2</Longitude>
    <Role>VOLUNTEER</Role>
    <Active>false</Active>
    <MaxDistance>4008</MaxDistance>
    <TypeOfDistance>AERIALDISTANCE</TypeOfDistance>
  </Volunteer>
  <Volunteer>
    <Id>223242000</Id>
    <FullName>Oliver Evans</FullName>
    <Phone>055-4321098</Phone>
    <Email>oliver.evans@example.com</Email>
    <Password>qwertz!234</Password>
    <FullAddress>Geva 60, Ashkelon</FullAddress>
    <Latitude>56.47</Latitude>
    <Longitude>-9.88</Longitude>
    <Role>VOLUNTEER</Role>
    <Active>true</Active>
    <MaxDistance>10377</MaxDistance>
    <TypeOfDistance>AERIALDISTANCE</TypeOfDistance>
  </Volunteer>
  <Volunteer>
    <Id>216062628</Id>
    <FullName>Harper Lewis</FullName>
    <Phone>056-3210987</Phone>
    <Email>harper.lewis@example.com</Email>
    <Password>supersecurepass</Password>
    <FullAddress>Hok 11, Haifa</FullAddress>
    <Latitude>-3.25</Latitude>
    <Longitude>34.06</Longitude>
    <Role>DISTRICTMANAGER</Role>
    <Active>true</Active>
    <MaxDistance>358</MaxDistance>
    <TypeOfDistance>AERIALDISTANCE</TypeOfDistance>
  </Volunteer>
  <Volunteer>
    <Id>212628079</Id>
    <FullName>Benjamin Lee</FullName>
    <Phone>057-2109876</Phone>
    <Email>benjamin.lee@example.com</Email>
    <Password>access1234</Password>
    <FullAddress>Geshem 15, Safed</FullAddress>
    <Latitude>45.62</Latitude>
    <Longitude>-126.77</Longitude>
    <Role>VOLUNTEER</Role>
    <Active>false</Active>
    <MaxDistance>3700</MaxDistance>
    <TypeOfDistance>AERIALDISTANCE</TypeOfDistance>
  </Volunteer>
  <Volunteer>
    <Id>328662857</Id>
    <FullName>Victoria Allen</FullName>
    <Phone>058-1098765</Phone>
    <Email>victoria.allen@example.com</Email>
    <Password>strong2024pass</Password>
    <FullAddress>Horef 2, Jerusalem</FullAddress>
    <Latitude>-21.88</Latitude>
    <Longitude>96.23</Longitude>
    <Role>DISTRICTMANAGER</Role>
    <Active>false</Active>
    <MaxDistance>6047</MaxDistance>
    <TypeOfDistance>AERIALDISTANCE</TypeOfDistance>
  </Volunteer>
  <Volunteer>
    <Id>223248977</Id>
    <FullName>James White</FullName>
    <Phone>059-0987654</Phone>
    <Email>james.white@example.com</Email>
    <Password>ilovechatgpt123</Password>
    <FullAddress>Heder 30, Caesarea</FullAddress>
    <Latitude>11.68</Latitude>
    <Longitude>25.76</Longitude>
    <Role>VOLUNTEER</Role>
    <Active>false</Active>
    <MaxDistance>5880</MaxDistance>
    <TypeOfDistance>AERIALDISTANCE</TypeOfDistance>
  </Volunteer>
  <Volunteer>
    <Id>299797593</Id>
    <FullName>Natalie Scott</FullName>
    <Phone>054-0988684</Phone>
    <Email>natalie.scott@example.com</Email>
    <Password>admin1password</Password>
    <FullAddress>Binyan 7, Ashdod</FullAddress>
    <Latitude>53.94</Latitude>
    <Longitude>-110.89</Longitude>
    <Role>VOLUNTEER</Role>
    <Active>false</Active>
    <MaxDistance>1845</MaxDistance>
    <TypeOfDistance>AERIALDISTANCE</TypeOfDistance>
  </Volunteer>
  <Volunteer>
    <Id>262930579</Id>
    <FullName>Evan Phillips</FullName>
    <Phone>052-9989654</Phone>
    <Email>evan.phillips@example.com</Email>
    <Password>testpass1234</Password>
    <FullAddress>Derech 56, Tel Aviv</FullAddress>
    <Latitude>23.77</Latitude>
    <Longitude>6.83</Longitude>
    <Role>VOLUNTEER</Role>
    <Active>false</Active>
    <MaxDistance>2867</MaxDistance>
    <TypeOfDistance>AERIALDISTANCE</TypeOfDistance>
  </Volunteer>
  <Volunteer>
    <Id>326400066</Id>
    <FullName>John Doe</FullName>
    <Phone>052-1234567</Phone>
    <Email>john.doe@example.com</Email>
    <Password>password123</Password>
    <FullAddress>Main Street 1, Tel Aviv</FullAddress>
    <Latitude>-45.27</Latitude>
    <Longitude>13.45</Longitude>
    <Role>DISTRICTMANAGER</Role>
    <Active>true</Active>
    <MaxDistance>12321</MaxDistance>
    <TypeOfDistance>AERIALDISTANCE</TypeOfDistance>
  </Volunteer>
  <Volunteer>
    <Id>363864037</Id>
    <FullName>Jane Smith</FullName>
    <Phone>053-2345678</Phone>
    <Email>jane.smith@example.com</Email>
    <Password>abc123</Password>
    <FullAddress>Har 2, Jerusalem</FullAddress>
    <Latitude>32.41</Latitude>
    <Longitude>-118.65</Longitude>
    <Role>VOLUNTEER</Role>
    <Active>false</Active>
    <MaxDistance>2873</MaxDistance>
    <TypeOfDistance>AERIALDISTANCE</TypeOfDistance>
  </Volunteer>
  <Volunteer>
    <Id>279492126</Id>
    <FullName>Michael Johnson</FullName>
    <Phone>054-3456789</Phone>
    <Email>michael.johnson@example.com</Email>
    <Password>qwerty123</Password>
    <FullAddress>Independence 45, Haifa</FullAddress>
    <Latitude>-12.55</Latitude>
    <Longitude>23.53</Longitude>
    <Role>VOLUNTEER</Role>
    <Active>true</Active>
    <MaxDistance>5138</MaxDistance>
    <TypeOfDistance>AERIALDISTANCE</TypeOfDistance>
  </Volunteer>
  <Volunteer>
    <Id>292409429</Id>
    <FullName>Emily Davis</FullName>
    <Phone>055-4567890</Phone>
    <Email>emily.davis@example.com</Email>
    <Password>letmein2024</Password>
    <FullAddress>Galil 12, Petah Tikva</FullAddress>
    <Latitude>57.8</Latitude>
    <Longitude>89.45</Longitude>
    <Role>DISTRICTMANAGER</Role>
    <Active>false</Active>
    <MaxDistance>4383</MaxDistance>
    <TypeOfDistance>AERIALDISTANCE</TypeOfDistance>
  </Volunteer>
