<?xml version="1.0" encoding="utf-8"?>
<ArrayOfVolunteer xmlns:xsi="http://www.w3.org/2001/XMLSchema-instance" xmlns:xsd="http://www.w3.org/2001/XMLSchema">
  <Volunteer>
    <Id>217900821</Id>
    <FullName>John Doe</FullName>
    <Phone>052-1234567</Phone>
    <Email>john.doe@example.com</Email>
    <Password>password123</Password>
    <FullAddress>Rothschild Boulevard 1, Tel Aviv</FullAddress>
    <Latitude>32.0645</Latitude>
    <Longitude>34.777</Longitude>
    <Role>ADMIN</Role>
    <Active>false</Active>
    <MaxDistance>3501</MaxDistance>
    <TypeOfDistance>AERIALDISTANCE</TypeOfDistance>
  </Volunteer>
  <Volunteer>
    <Id>335178798</Id>
    <FullName>Jane Smith</FullName>
    <Phone>053-2345678</Phone>
    <Email>jane.smith@example.com</Email>
    <Password>abc123</Password>
    <FullAddress>King George Street 20, Tel Aviv</FullAddress>
    <Latitude>32.054</Latitude>
    <Longitude>34.765</Longitude>
    <Role>VOLUNTEER</Role>
    <Active>true</Active>
    <MaxDistance>8247</MaxDistance>
    <TypeOfDistance>AERIALDISTANCE</TypeOfDistance>
  </Volunteer>
  <Volunteer>
    <Id>315322610</Id>
    <FullName>Michael Johnson</FullName>
    <Phone>054-3456789</Phone>
    <Email>michael.johnson@example.com</Email>
    <Password>qwerty123</Password>
    <FullAddress>Herzl Street 10, Tel Aviv</FullAddress>
    <Latitude>32.0556</Latitude>
    <Longitude>34.77</Longitude>
    <Role>VOLUNTEER</Role>
    <Active>true</Active>
    <MaxDistance>4180</MaxDistance>
    <TypeOfDistance>AERIALDISTANCE</TypeOfDistance>
  </Volunteer>
  <Volunteer>
    <Id>218206182</Id>
    <FullName>Emily Davis</FullName>
    <Phone>055-4567890</Phone>
    <Email>emily.davis@example.com</Email>
    <Password>letmein2024</Password>
    <FullAddress>Dizengoff Street 50, Tel Aviv</FullAddress>
    <Latitude>32.0853</Latitude>
    <Longitude>34.7818</Longitude>
    <Role>VOLUNTEER</Role>
    <Active>true</Active>
    <MaxDistance>7165</MaxDistance>
    <TypeOfDistance>AERIALDISTANCE</TypeOfDistance>
  </Volunteer>
  <Volunteer>
    <Id>313412385</Id>
    <FullName>Chris Brown</FullName>
    <Phone>056-5678901</Phone>
    <Email>chris.brown@example.com</Email>
    <Password>welcome1</Password>
    <FullAddress>Allenby Street 99, Tel Aviv</FullAddress>
    <Latitude>32.0647</Latitude>
    <Longitude>34.769</Longitude>
    <Role>VOLUNTEER</Role>
    <Active>false</Active>
    <MaxDistance>11279</MaxDistance>
    <TypeOfDistance>AERIALDISTANCE</TypeOfDistance>
  </Volunteer>
  <Volunteer>
    <Id>341713357</Id>
    <FullName>Jessica Taylor</FullName>
    <Phone>057-6789012</Phone>
    <Email>jessica.taylor@example.com</Email>
    <Password>1234abcd</Password>
    <FullAddress>Shaul HaMelech Blvd 37, Tel Aviv</FullAddress>
    <Latitude>32.0729</Latitude>
    <Longitude>34.7815</Longitude>
    <Role>VOLUNTEER</Role>
    <Active>false</Active>
    <MaxDistance>5401</MaxDistance>
    <TypeOfDistance>AERIALDISTANCE</TypeOfDistance>
  </Volunteer>
  <Volunteer>
    <Id>284876836</Id>
    <FullName>David Wilson</FullName>
    <Phone>058-7890123</Phone>
    <Email>david.wilson@example.com</Email>
    <Password>iloveyou99</Password>
    <FullAddress>HaYarkon Street 100, Tel Aviv</FullAddress>
    <Latitude>32.0729</Latitude>
    <Longitude>34.762</Longitude>
    <Role>VOLUNTEER</Role>
    <Active>true</Active>
    <MaxDistance>7147</MaxDistance>
    <TypeOfDistance>AERIALDISTANCE</TypeOfDistance>
  </Volunteer>
  <Volunteer>
    <Id>373395751</Id>
    <FullName>Sophia Moore</FullName>
    <Phone>059-8901234</Phone>
    <Email>sophia.moore@example.com</Email>
    <Password>admin123</Password>
    <FullAddress>Jaffa Road 30, Jerusalem</FullAddress>
    <Latitude>31.778</Latitude>
    <Longitude>35.217</Longitude>
    <Role>VOLUNTEER</Role>
    <Active>false</Active>
    <MaxDistance>11978</MaxDistance>
    <TypeOfDistance>AERIALDISTANCE</TypeOfDistance>
  </Volunteer>
  <Volunteer>
    <Id>208873133</Id>
    <FullName>Daniel Anderson</FullName>
    <Phone>050-9876543</Phone>
    <Email>daniel.anderson@example.com</Email>
    <Password>secretpass</Password>
    <FullAddress>King David Street 23, Jerusalem</FullAddress>
    <Latitude>31.7717</Latitude>
    <Longitude>35.213</Longitude>
    <Role>VOLUNTEER</Role>
    <Active>false</Active>
    <MaxDistance>4810</MaxDistance>
    <TypeOfDistance>AERIALDISTANCE</TypeOfDistance>
  </Volunteer>
  <Volunteer>
    <Id>359946385</Id>
    <FullName>Olivia Lee</FullName>
    <Phone>051-8765432</Phone>
    <Email>olivia.lee@example.com</Email>
    <Password>letmein22</Password>
    <FullAddress>Emek Refaim 45, Jerusalem</FullAddress>
    <Latitude>31.778</Latitude>
    <Longitude>35.212</Longitude>
    <Role>VOLUNTEER</Role>
    <Active>false</Active>
    <MaxDistance>3934</MaxDistance>
    <TypeOfDistance>AERIALDISTANCE</TypeOfDistance>
  </Volunteer>
  <Volunteer>
    <Id>227581256</Id>
    <FullName>Matthew Harris</FullName>
    <Phone>052-7654321</Phone>
    <Email>matthew.harris@example.com</Email>
    <Password>secure2023</Password>
    <FullAddress>HaChalutz 11, Jerusalem</FullAddress>
    <Latitude>31.7776</Latitude>
    <Longitude>35.21</Longitude>
    <Role>VOLUNTEER</Role>
    <Active>true</Active>
    <MaxDistance>5754</MaxDistance>
    <TypeOfDistance>AERIALDISTANCE</TypeOfDistance>
  </Volunteer>
  <Volunteer>
    <Id>231305568</Id>
    <FullName>Lily Clark</FullName>
    <Phone>053-6543210</Phone>
    <Email>lily.clark@example.com</Email>
    <Password>testpass1</Password>
    <FullAddress>HaChoref 2, Jerusalem</FullAddress>
    <Latitude>31.7817</Latitude>
    <Longitude>35.215</Longitude>
    <Role>VOLUNTEER</Role>
    <Active>true</Active>
    <MaxDistance>8484</MaxDistance>
    <TypeOfDistance>AERIALDISTANCE</TypeOfDistance>
  </Volunteer>
  <Volunteer>
    <Id>274844715</Id>
    <FullName>James Walker</FullName>
    <Phone>054-5432109</Phone>
    <Email>james.walker@example.com</Email>
    <Password>password2024</Password>
    <FullAddress>Ben Gurion Boulevard 12, Haifa</FullAddress>
    <Latitude>32.794</Latitude>
    <Longitude>34.9896</Longitude>
    <Role>VOLUNTEER</Role>
    <Active>false</Active>
    <MaxDistance>11613</MaxDistance>
    <TypeOfDistance>AERIALDISTANCE</TypeOfDistance>
  </Volunteer>
  <Volunteer>
    <Id>241552161</Id>
    <FullName>Chloe Hall</FullName>
    <Phone>055-4321098</Phone>
    <Email>chloe.hall@example.com</Email>
    <Password>mysecret123</Password>
    <FullAddress>Hertzel 48, Haifa</FullAddress>
    <Latitude>32.794</Latitude>
    <Longitude>34.9875</Longitude>
    <Role>VOLUNTEER</Role>
    <Active>false</Active>
    <MaxDistance>6946</MaxDistance>
    <TypeOfDistance>AERIALDISTANCE</TypeOfDistance>
  </Volunteer>
  <Volunteer>
    <Id>395231617</Id>
    <FullName>Benjamin Young</FullName>
    <Phone>056-3210987</Phone>
    <Email>benjamin.young@example.com</Email>
    <Password>access123</Password>
    <FullAddress>HaNassi Boulevard 109, Haifa</FullAddress>
    <Latitude>32.814</Latitude>
    <Longitude>34.993</Longitude>
    <Role>VOLUNTEER</Role>
    <Active>false</Active>
    <MaxDistance>9491</MaxDistance>
    <TypeOfDistance>AERIALDISTANCE</TypeOfDistance>
  </Volunteer>
  <Volunteer>
    <Id>387023803</Id>
    <FullName>Mia Scott</FullName>
    <Phone>057-2109876</Phone>
    <Email>mia.scott@example.com</Email>
    <Password>12345qwerty</Password>
    <FullAddress>HaKochavim 25, Haifa</FullAddress>
    <Latitude>32.79</Latitude>
    <Longitude>34.995</Longitude>
    <Role>VOLUNTEER</Role>
    <Active>false</Active>
    <MaxDistance>946</MaxDistance>
    <TypeOfDistance>AERIALDISTANCE</TypeOfDistance>
  </Volunteer>
  <Volunteer>
    <Id>283379825</Id>
    <FullName>Ethan Adams</FullName>
    <Phone>058-1098765</Phone>
    <Email>ethan.adams@example.com</Email>
    <Password>iloveme</Password>
    <FullAddress>HaChok 11, Haifa</FullAddress>
    <Latitude>32.8</Latitude>
    <Longitude>34.999</Longitude>
    <Role>VOLUNTEER</Role>
    <Active>false</Active>
    <MaxDistance>6895</MaxDistance>
    <TypeOfDistance>AERIALDISTANCE</TypeOfDistance>
  </Volunteer>
  <Volunteer>
    <Id>244345708</Id>
    <FullName>Isabella King</FullName>
    <Phone>059-0987654</Phone>
    <Email>isabella.king@example.com</Email>
    <Password>mypassword01</Password>
    <FullAddress>Herzl 15, Netanya</FullAddress>
    <Latitude>32.3327</Latitude>
    <Longitude>34.85</Longitude>
    <Role>VOLUNTEER</Role>
    <Active>true</Active>
    <MaxDistance>10817</MaxDistance>
    <TypeOfDistance>AERIALDISTANCE</TypeOfDistance>
  </Volunteer>
  <Volunteer>
    <Id>207733069</Id>
    <FullName>Aiden Martinez</FullName>
    <Phone>050-9876543</Phone>
    <Email>aiden.martinez@example.com</Email>
    <Password>adminpassword</Password>
    <FullAddress>HaDegel 77, Netanya</FullAddress>
    <Latitude>32.3337</Latitude>
    <Longitude>34.85</Longitude>
    <Role>VOLUNTEER</Role>
    <Active>false</Active>
    <MaxDistance>8239</MaxDistance>
    <TypeOfDistance>AERIALDISTANCE</TypeOfDistance>
  </Volunteer>
  <Volunteer>
    <Id>301361780</Id>
    <FullName>Charlotte Lee</FullName>
    <Phone>051-8765432</Phone>
    <Email>charlotte.lee@example.com</Email>
    <Password>password!23</Password>
    <FullAddress>HaAtzmaut 60, Bat Yam</FullAddress>
    <Latitude>32.0276</Latitude>
    <Longitude>34.75</Longitude>
    <Role>VOLUNTEER</Role>
    <Active>true</Active>
    <MaxDistance>3710</MaxDistance>
    <TypeOfDistance>AERIALDISTANCE</TypeOfDistance>
  </Volunteer>
  <Volunteer>
    <Id>214563838</Id>
    <FullName>Lucas Perez</FullName>
    <Phone>052-7654321</Phone>
    <Email>lucas.perez@example.com</Email>
    <Password>123qwerty</Password>
    <FullAddress>HaChof 3, Bat Yam</FullAddress>
    <Latitude>32.031</Latitude>
    <Longitude>34.745</Longitude>
    <Role>VOLUNTEER</Role>
    <Active>true</Active>
    <MaxDistance>6293</MaxDistance>
    <TypeOfDistance>AERIALDISTANCE</TypeOfDistance>
  </Volunteer>
  <Volunteer>
    <Id>267721441</Id>
    <FullName>Amelia Rodriguez</FullName>
    <Phone>053-6543210</Phone>
    <Email>amelia.rodriguez@example.com</Email>
    <Password>letmein2023</Password>
    <FullAddress>HaNamal 8, Ashdod</FullAddress>
    <Latitude>31.8034</Latitude>
    <Longitude>34.65</Longitude>
    <Role>VOLUNTEER</Role>
    <Active>false</Active>
    <MaxDistance>4441</MaxDistance>
    <TypeOfDistance>AERIALDISTANCE</TypeOfDistance>
  </Volunteer>
  <Volunteer>
    <Id>306025310</Id>
    <FullName>Henry Green</FullName>
    <Phone>054-5432109</Phone>
    <Email>henry.green@example.com</Email>
    <Password>strongpass22</Password>
    <FullAddress>Sderot Menachem Begin 7, Ashdod</FullAddress>
    <Latitude>31.795</Latitude>
    <Longitude>34.65</Longitude>
    <Role>VOLUNTEER</Role>
    <Active>true</Active>
    <MaxDistance>4920</MaxDistance>
    <TypeOfDistance>AERIALDISTANCE</TypeOfDistance>
  </Volunteer>
  <Volunteer>
    <Id>336334606</Id>
    <FullName>Aria Hall</FullName>
    <Phone>055-4321098</Phone>
    <Email>aria.hall@example.com</Email>
    <Password>qwertz123</Password>
    <FullAddress>Moshe Dayan Boulevard 10, Ashdod</FullAddress>
    <Latitude>31.794</Latitude>
    <Longitude>34.655</Longitude>
    <Role>VOLUNTEER</Role>
    <Active>true</Active>
    <MaxDistance>753</MaxDistance>
    <TypeOfDistance>AERIALDISTANCE</TypeOfDistance>
  </Volunteer>
  <Volunteer>
    <Id>393384799</Id>
    <FullName>Samuel Harris</FullName>
    <Phone>056-3210987</Phone>
    <Email>samuel.harris@example.com</Email>
    <Password>abcpassword</Password>
    <FullAddress>Ben Gurion 11, Ashkelon</FullAddress>
    <Latitude>31.669</Latitude>
    <Longitude>34.574</Longitude>
    <Role>VOLUNTEER</Role>
    <Active>false</Active>
    <MaxDistance>9626</MaxDistance>
    <TypeOfDistance>AERIALDISTANCE</TypeOfDistance>
  </Volunteer>
  <Volunteer>
    <Id>335308925</Id>
    <FullName>Ella Carter</FullName>
    <Phone>057-2109876</Phone>
    <Email>ella.carter@example.com</Email>
    <Password>mypassword@2024</Password>
    <FullAddress>HaGiv'a 60, Ashkelon</FullAddress>
    <Latitude>31.675</Latitude>
    <Longitude>34.57</Longitude>
    <Role>VOLUNTEER</Role>
    <Active>false</Active>
    <MaxDistance>4647</MaxDistance>
    <TypeOfDistance>AERIALDISTANCE</TypeOfDistance>
  </Volunteer>
  <Volunteer>
    <Id>263590704</Id>
    <FullName>David Walker</FullName>
    <Phone>058-1098765</Phone>
    <Email>david.walker@example.com</Email>
    <Password>passw0rd123</Password>
    <FullAddress>HaMashbir 14, Hadera</FullAddress>
    <Latitude>32.4346</Latitude>
    <Longitude>34.9197</Longitude>
    <Role>VOLUNTEER</Role>
    <Active>true</Active>
    <MaxDistance>4083</MaxDistance>
    <TypeOfDistance>AERIALDISTANCE</TypeOfDistance>
  </Volunteer>
  <Volunteer>
    <Id>260727253</Id>
    <FullName>Avery Thompson</FullName>
    <Phone>059-0987654</Phone>
    <Email>avery.thompson@example.com</Email>
    <Password>iloveyou1234</Password>
    <FullAddress>HaSela 58, Tirat Carmel</FullAddress>
    <Latitude>32.709</Latitude>
    <Longitude>35.073</Longitude>
    <Role>VOLUNTEER</Role>
    <Active>false</Active>
    <MaxDistance>9566</MaxDistance>
    <TypeOfDistance>AERIALDISTANCE</TypeOfDistance>
  </Volunteer>
  <Volunteer>
    <Id>382015822</Id>
    <FullName>Oliver Collins</FullName>
    <Phone>050-9876543</Phone>
    <Email>oliver.collins@example.com</Email>
    <Password>testpassword12</Password>
    <FullAddress>HaTzanchanim 9, Lod</FullAddress>
    <Latitude>31.9517</Latitude>
    <Longitude>34.899</Longitude>
    <Role>VOLUNTEER</Role>
    <Active>true</Active>
    <MaxDistance>3145</MaxDistance>
    <TypeOfDistance>AERIALDISTANCE</TypeOfDistance>
  </Volunteer>
  <Volunteer>
    <Id>204843503</Id>
    <FullName>Sophie White</FullName>
    <Phone>051-8765432</Phone>
    <Email>sophie.white@example.com</Email>
    <Password>openai123</Password>
    <FullAddress>Herzel 90, Lod</FullAddress>
    <Latitude>31.954</Latitude>
    <Longitude>34.899</Longitude>
    <Role>VOLUNTEER</Role>
    <Active>false</Active>
    <MaxDistance>11743</MaxDistance>
    <TypeOfDistance>AERIALDISTANCE</TypeOfDistance>
  </Volunteer>
  <Volunteer>
    <Id>232423285</Id>
    <FullName>William Wright</FullName>
    <Phone>052-7654321</Phone>
    <Email>william.wright@example.com</Email>
    <Password>adminsecure</Password>
    <FullAddress>HaRishonim 11, Rishon Lezion</FullAddress>
    <Latitude>31.964</Latitude>
    <Longitude>34.901</Longitude>
    <Role>VOLUNTEER</Role>
    <Active>false</Active>
    <MaxDistance>1156</MaxDistance>
    <TypeOfDistance>AERIALDISTANCE</TypeOfDistance>
  </Volunteer>
  <Volunteer>
    <Id>385581186</Id>
    <FullName>Megan Nelson</FullName>
    <Phone>053-6543210</Phone>
    <Email>megan.nelson@example.com</Email>
    <Password>securepassword01</Password>
    <FullAddress>Rothschild 100, Rishon Lezion</FullAddress>
    <Latitude>31.971</Latitude>
    <Longitude>34.8</Longitude>
    <Role>VOLUNTEER</Role>
    <Active>true</Active>
    <MaxDistance>7300</MaxDistance>
    <TypeOfDistance>AERIALDISTANCE</TypeOfDistance>
  </Volunteer>
  <Volunteer>
    <Id>383990628</Id>
    <FullName>Jack Brown</FullName>
    <Phone>054-5432109</Phone>
    <Email>jack.brown@example.com</Email>
    <Password>bestpassword!</Password>
    <FullAddress>HaHistadrut 50, Ramat Gan</FullAddress>
    <Latitude>32.06</Latitude>
    <Longitude>34.8</Longitude>
    <Role>VOLUNTEER</Role>
    <Active>true</Active>
    <MaxDistance>2640</MaxDistance>
    <TypeOfDistance>AERIALDISTANCE</TypeOfDistance>
  </Volunteer>
  <Volunteer>
    <Id>337543150</Id>
    <FullName>Madison Roberts</FullName>
    <Phone>055-4321098</Phone>
    <Email>madison.roberts@example.com</Email>
    <Password>chatrocks</Password>
    <FullAddress>HaShalom Road 33, Ramat Gan</FullAddress>
    <Latitude>32.06</Latitude>
    <Longitude>34.79</Longitude>
    <Role>VOLUNTEER</Role>
    <Active>true</Active>
    <MaxDistance>11592</MaxDistance>
    <TypeOfDistance>AERIALDISTANCE</TypeOfDistance>
  </Volunteer>
  <Volunteer>
    <Id>271278779</Id>
    <FullName>Jacob Carter</FullName>
    <Phone>056-3210987</Phone>
    <Email>jacob.carter@example.com</Email>
    <Password>strongpass1</Password>
    <FullAddress>Menachem Begin Blvd 48, Givatayim</FullAddress>
    <Latitude>32.073</Latitude>
    <Longitude>34.789</Longitude>
    <Role>VOLUNTEER</Role>
    <Active>false</Active>
    <MaxDistance>6365</MaxDistance>
    <TypeOfDistance>AERIALDISTANCE</TypeOfDistance>
  </Volunteer>
  <Volunteer>
    <Id>272014136</Id>
    <FullName>Sophia Brooks</FullName>
    <Phone>057-2109876</Phone>
    <Email>sophia.brooks@example.com</Email>
    <Password>newpassword2024</Password>
    <FullAddress>HaShalom Rd 6, Givatayim</FullAddress>
    <Latitude>32.073</Latitude>
    <Longitude>34.781</Longitude>
    <Role>VOLUNTEER</Role>
    <Active>true</Active>
    <MaxDistance>8832</MaxDistance>
    <TypeOfDistance>AERIALDISTANCE</TypeOfDistance>
  </Volunteer>
  <Volunteer>
    <Id>334839373</Id>
    <FullName>Jackson Scott</FullName>
    <Phone>058-1098765</Phone>
    <Email>jackson.scott@example.com</Email>
    <Password>password01@</Password>
    <FullAddress>Begin Road 17, Petah Tikva</FullAddress>
    <Latitude>32.082</Latitude>
    <Longitude>34.783</Longitude>
    <Role>VOLUNTEER</Role>
    <Active>false</Active>
    <MaxDistance>11055</MaxDistance>
    <TypeOfDistance>AERIALDISTANCE</TypeOfDistance>
  </Volunteer>
  <Volunteer>
    <Id>281029152</Id>
    <FullName>Grace Turner</FullName>
    <Phone>059-0987654</Phone>
    <Email>grace.turner@example.com</Email>
    <Password>welcome@123</Password>
    <FullAddress>HaTechnology 67, Petah Tikva</FullAddress>
    <Latitude>32.09</Latitude>
    <Longitude>34.784</Longitude>
    <Role>VOLUNTEER</Role>
    <Active>true</Active>
    <MaxDistance>1544</MaxDistance>
    <TypeOfDistance>AERIALDISTANCE</TypeOfDistance>
  </Volunteer>
  <Volunteer>
    <Id>368445863</Id>
    <FullName>Mason Miller</FullName>
    <Phone>050-9876543</Phone>
    <Email>mason.miller@example.com</Email>
    <Password>1234password</Password>
    <FullAddress>Em Hamoshavot Rd 99, Petah Tikva</FullAddress>
    <Latitude>32.095</Latitude>
    <Longitude>34.79</Longitude>
    <Role>VOLUNTEER</Role>
    <Active>false</Active>
    <MaxDistance>8423</MaxDistance>
    <TypeOfDistance>AERIALDISTANCE</TypeOfDistance>
  </Volunteer>
  <Volunteer>
    <Id>220549070</Id>
    <FullName>Liam King</FullName>
    <Phone>051-8765432</Phone>
    <Email>liam.king@example.com</Email>
    <Password>secret1234</Password>
    <FullAddress>HaNasi Weizman 1, Kfar Saba</FullAddress>
    <Latitude>32.167</Latitude>
    <Longitude>34.9</Longitude>
    <Role>VOLUNTEER</Role>
    <Active>true</Active>
    <MaxDistance>9885</MaxDistance>
    <TypeOfDistance>AERIALDISTANCE</TypeOfDistance>
  </Volunteer>
  <Volunteer>
    <Id>333173981</Id>
    <FullName>Charlotte Walker</FullName>
    <Phone>052-7654321</Phone>
    <Email>charlotte.walker@example.com</Email>
    <Password>tbot2023</Password>
    <FullAddress>HaPalmach 40, Raanana</FullAddress>
    <Latitude>32.183</Latitude>
    <Longitude>34.87</Longitude>
    <Role>VOLUNTEER</Role>
    <Active>false</Active>
    <MaxDistance>7547</MaxDistance>
    <TypeOfDistance>AERIALDISTANCE</TypeOfDistance>
  </Volunteer>
  <Volunteer>
    <Id>253741042</Id>
    <FullName>Daniel Evans</FullName>
    <Phone>053-6543210</Phone>
    <Email>daniel.evans@example.com</Email>
    <Password>securechatgpt</Password>
    <FullAddress>Gefen 22, Be'er Sheva</FullAddress>
    <Latitude>31.252</Latitude>
    <Longitude>34.795</Longitude>
    <Role>VOLUNTEER</Role>
    <Active>true</Active>
    <MaxDistance>11493</MaxDistance>
    <TypeOfDistance>AERIALDISTANCE</TypeOfDistance>
  </Volunteer>
  <Volunteer>
    <Id>201987578</Id>
    <FullName>Ella Green</FullName>
    <Phone>054-5432109</Phone>
    <Email>ella.green@example.com</Email>
    <Password>pass1234</Password>
    <FullAddress>HaPalmach 5, Be'er Sheva</FullAddress>
    <Latitude>31.254</Latitude>
    <Longitude>34.796</Longitude>
    <Role>VOLUNTEER</Role>
    <Active>true</Active>
    <MaxDistance>5276</MaxDistance>
    <TypeOfDistance>AERIALDISTANCE</TypeOfDistance>
  </Volunteer>
  <Volunteer>
    <Id>366300758</Id>
    <FullName>Oliver Evans</FullName>
    <Phone>055-4321098</Phone>
    <Email>oliver.evans@example.com</Email>
    <Password>qwertz!234</Password>
    <FullAddress>HaRav Kook 5, Eilat</FullAddress>
    <Latitude>29.558</Latitude>
    <Longitude>34.9519</Longitude>
    <Role>VOLUNTEER</Role>
    <Active>true</Active>
    <MaxDistance>6224</MaxDistance>
    <TypeOfDistance>AERIALDISTANCE</TypeOfDistance>
  </Volunteer>
  <Volunteer>
    <Id>265339561</Id>
    <FullName>Harper Lewis</FullName>
    <Phone>056-3210987</Phone>
    <Email>harper.lewis@example.com</Email>
    <Password>supersecurepass</Password>
    <FullAddress>HaBoker 45, Eilat</FullAddress>
    <Latitude>29.559</Latitude>
    <Longitude>34.951</Longitude>
    <Role>VOLUNTEER</Role>
    <Active>false</Active>
    <MaxDistance>6930</MaxDistance>
    <TypeOfDistance>AERIALDISTANCE</TypeOfDistance>
  </Volunteer>
  <Volunteer>
    <Id>256773242</Id>
    <FullName>Benjamin Lee</FullName>
    <Phone>057-2109876</Phone>
    <Email>benjamin.lee@example.com</Email>
    <Password>access1234</Password>
    <FullAddress>HaGalil 3, Safed</FullAddress>
    <Latitude>32.964</Latitude>
    <Longitude>35.495</Longitude>
    <Role>VOLUNTEER</Role>
    <Active>true</Active>
    <MaxDistance>3127</MaxDistance>
    <TypeOfDistance>AERIALDISTANCE</TypeOfDistance>
  </Volunteer>
  <Volunteer>
    <Id>267513472</Id>
    <FullName>Victoria Allen</FullName>
    <Phone>058-1098765</Phone>
    <Email>victoria.allen@example.com</Email>
    <Password>strong2024pass</Password>
    <FullAddress>HaYam 7, Tiberias</FullAddress>
    <Latitude>32.794</Latitude>
    <Longitude>35.532</Longitude>
    <Role>VOLUNTEER</Role>
    <Active>true</Active>
    <MaxDistance>5578</MaxDistance>
    <TypeOfDistance>AERIALDISTANCE</TypeOfDistance>
  </Volunteer>
  <Volunteer>
    <Id>305763325</Id>
    <FullName>James White</FullName>
    <Phone>059-0987654</Phone>
    <Email>james.white@example.com</Email>
    <Password>ilovechatgpt123</Password>
    <FullAddress>HaZionut 3, Kiryat Shmona</FullAddress>
    <Latitude>33.204</Latitude>
    <Longitude>35.57</Longitude>
    <Role>VOLUNTEER</Role>
    <Active>false</Active>
    <MaxDistance>5379</MaxDistance>
    <TypeOfDistance>AERIALDISTANCE</TypeOfDistance>
  </Volunteer>
  <Volunteer>
    <Id>349615784</Id>
    <FullName>Natalie Scott</FullName>
    <Phone>054-0988684</Phone>
    <Email>natalie.scott@example.com</Email>
    <Password>admin1password</Password>
    <FullAddress>HaHistadrut 80, Kiryat Gat</FullAddress>
    <Latitude>31.608</Latitude>
    <Longitude>34.76</Longitude>
    <Role>VOLUNTEER</Role>
    <Active>true</Active>
    <MaxDistance>8785</MaxDistance>
    <TypeOfDistance>AERIALDISTANCE</TypeOfDistance>
  </Volunteer>
  <Volunteer>
    <Id>280294617</Id>
    <FullName>Evan Phillips</FullName>
    <Phone>052-9989654</Phone>
    <Email>evan.phillips@example.com</Email>
    <Password>testpass1234</Password>
    <FullAddress>HaDekel 8, Netivot</FullAddress>
    <Latitude>31.422</Latitude>
    <Longitude>34.618</Longitude>
    <Role>VOLUNTEER</Role>
    <Active>false</Active>
    <MaxDistance>11189</MaxDistance>
    <TypeOfDistance>AERIALDISTANCE</TypeOfDistance>
  </Volunteer>
</ArrayOfVolunteer>