<?xml version="1.0" encoding="utf-8"?>
<ArrayOfVolunteer xmlns:xsi="http://www.w3.org/2001/XMLSchema-instance" xmlns:xsd="http://www.w3.org/2001/XMLSchema">
  <Volunteer>
    <Id>333013875</Id>
    <FullName>John Doe</FullName>
    <Phone>052-1234567</Phone>
    <Email>john.doe@example.com</Email>
    <Password>password123</Password>
    <FullAddress>Main Street 1, Tel Aviv</FullAddress>
    <Latitude>-45.27</Latitude>
    <Longitude>13.45</Longitude>
    <Role>ADMIN</Role>
    <Active>false</Active>
    <MaxDistance>3538</MaxDistance>
    <TypeOfDistance>AERIALDISTANCE</TypeOfDistance>
  </Volunteer>
  <Volunteer>
    <Id>351047431</Id>
    <FullName>Jane Smith</FullName>
    <Phone>053-2345678</Phone>
    <Email>jane.smith@example.com</Email>
    <Password>abc123</Password>
    <FullAddress>Har 2, Jerusalem</FullAddress>
    <Latitude>32.41</Latitude>
    <Longitude>-118.65</Longitude>
    <Role>VOLUNTEER</Role>
    <Active>false</Active>
    <MaxDistance>10861</MaxDistance>
    <TypeOfDistance>AERIALDISTANCE</TypeOfDistance>
  </Volunteer>
  <Volunteer>
    <Id>373011606</Id>
    <FullName>Michael Johnson</FullName>
    <Phone>054-3456789</Phone>
    <Email>michael.johnson@example.com</Email>
    <Password>qwerty123</Password>
    <FullAddress>Independence 45, Haifa</FullAddress>
    <Latitude>-12.55</Latitude>
    <Longitude>23.53</Longitude>
    <Role>VOLUNTEER</Role>
    <Active>true</Active>
    <MaxDistance>1432</MaxDistance>
    <TypeOfDistance>AERIALDISTANCE</TypeOfDistance>
  </Volunteer>
  <Volunteer>
    <Id>290335756</Id>
    <FullName>Emily Davis</FullName>
    <Phone>055-4567890</Phone>
    <Email>emily.davis@example.com</Email>
    <Password>letmein2024</Password>
    <FullAddress>Galil 12, Petah Tikva</FullAddress>
    <Latitude>57.8</Latitude>
    <Longitude>89.45</Longitude>
    <Role>DISTRICTMANAGER</Role>
    <Active>true</Active>
    <MaxDistance>10521</MaxDistance>
    <TypeOfDistance>AERIALDISTANCE</TypeOfDistance>
  </Volunteer>
  <Volunteer>
    <Id>367121599</Id>
    <FullName>Chris Brown</FullName>
    <Phone>056-5678901</Phone>
    <Email>chris.brown@example.com</Email>
    <Password>welcome1</Password>
    <FullAddress>Harbor 8, Ashdod</FullAddress>
    <Latitude>29.82</Latitude>
    <Longitude>-62.34</Longitude>
    <Role>VOLUNTEER</Role>
    <Active>false</Active>
    <MaxDistance>739</MaxDistance>
    <TypeOfDistance>AERIALDISTANCE</TypeOfDistance>
  </Volunteer>
  <Volunteer>
    <Id>225276504</Id>
    <FullName>Jessica Taylor</FullName>
    <Phone>057-6789012</Phone>
    <Email>jessica.taylor@example.com</Email>
    <Password>1234abcd</Password>
    <FullAddress>Hadar 34, Ramat Gan</FullAddress>
    <Latitude>-20.94</Latitude>
    <Longitude>31.22</Longitude>
    <Role>VOLUNTEER</Role>
    <Active>true</Active>
    <MaxDistance>1332</MaxDistance>
    <TypeOfDistance>AERIALDISTANCE</TypeOfDistance>
  </Volunteer>
  <Volunteer>
    <Id>200817619</Id>
    <FullName>David Wilson</FullName>
    <Phone>058-7890123</Phone>
    <Email>david.wilson@example.com</Email>
    <Password>iloveyou99</Password>
    <FullAddress>Zamir 56, Netanya</FullAddress>
    <Latitude>48.16</Latitude>
    <Longitude>-15.78</Longitude>
    <Role>VOLUNTEER</Role>
    <Active>false</Active>
    <MaxDistance>1452</MaxDistance>
    <TypeOfDistance>AERIALDISTANCE</TypeOfDistance>
  </Volunteer>
  <Volunteer>
    <Id>362199769</Id>
    <FullName>Sophia Moore</FullName>
    <Phone>059-8901234</Phone>
    <Email>sophia.moore@example.com</Email>
    <Password>admin123</Password>
    <FullAddress>Yarkon 10, Holon</FullAddress>
    <Latitude>-38.69</Latitude>
    <Longitude>78.64</Longitude>
    <Role>VOLUNTEER</Role>
    <Active>false</Active>
    <MaxDistance>9208</MaxDistance>
    <TypeOfDistance>AERIALDISTANCE</TypeOfDistance>
  </Volunteer>
  <Volunteer>
    <Id>268742850</Id>
    <FullName>Daniel Anderson</FullName>
    <Phone>050-9876543</Phone>
    <Email>daniel.anderson@example.com</Email>
    <Password>secretpass</Password>
    <FullAddress>Hameshe 77, Be'er Sheva</FullAddress>
    <Latitude>53.03</Latitude>
    <Longitude>-106.83</Longitude>
    <Role>DISTRICTMANAGER</Role>
    <Active>true</Active>
    <MaxDistance>11885</MaxDistance>
    <TypeOfDistance>AERIALDISTANCE</TypeOfDistance>
  </Volunteer>
  <Volunteer>
    <Id>230705281</Id>
    <FullName>Olivia Lee</FullName>
    <Phone>051-8765432</Phone>
    <Email>olivia.lee@example.com</Email>
    <Password>letmein22</Password>
    <FullAddress>Shalom 100, Rishon Lezion</FullAddress>
    <Latitude>24.91</Latitude>
    <Longitude>45.99</Longitude>
    <Role>VOLUNTEER</Role>
    <Active>false</Active>
    <MaxDistance>12123</MaxDistance>
    <TypeOfDistance>AERIALDISTANCE</TypeOfDistance>
  </Volunteer>
  <Volunteer>
    <Id>278409797</Id>
    <FullName>Matthew Harris</FullName>
    <Phone>052-7654321</Phone>
    <Email>matthew.harris@example.com</Email>
    <Password>secure2023</Password>
    <FullAddress>Kokhav 33, Kfar Saba</FullAddress>
    <Latitude>-64.39</Latitude>
    <Longitude>-134.56</Longitude>
    <Role>VOLUNTEER</Role>
    <Active>false</Active>
    <MaxDistance>840</MaxDistance>
    <TypeOfDistance>AERIALDISTANCE</TypeOfDistance>
  </Volunteer>
  <Volunteer>
    <Id>317976512</Id>
    <FullName>Lily Clark</FullName>
    <Phone>053-6543210</Phone>
    <Email>lily.clark@example.com</Email>
    <Password>testpass1</Password>
    <FullAddress>Meretz 21, Hadera</FullAddress>
    <Latitude>71.12</Latitude>
    <Longitude>72.88</Longitude>
    <Role>VOLUNTEER</Role>
    <Active>true</Active>
    <MaxDistance>5606</MaxDistance>
    <TypeOfDistance>AERIALDISTANCE</TypeOfDistance>
  </Volunteer>
  <Volunteer>
    <Id>247912701</Id>
    <FullName>James Walker</FullName>
    <Phone>054-5432109</Phone>
    <Email>james.walker@example.com</Email>
    <Password>password2024</Password>
    <FullAddress>Chaim 5, Rehovot</FullAddress>
    <Latitude>-3.67</Latitude>
    <Longitude>-50.32</Longitude>
    <Role>DISTRICTMANAGER</Role>
    <Active>false</Active>
    <MaxDistance>1186</MaxDistance>
    <TypeOfDistance>AERIALDISTANCE</TypeOfDistance>
  </Volunteer>
  <Volunteer>
    <Id>271594854</Id>
    <FullName>Chloe Hall</FullName>
    <Phone>055-4321098</Phone>
    <Email>chloe.hall@example.com</Email>
    <Password>mysecret123</Password>
    <FullAddress>Egzoz 18, Eilat</FullAddress>
    <Latitude>33.56</Latitude>
    <Longitude>12.96</Longitude>
    <Role>VOLUNTEER</Role>
    <Active>true</Active>
    <MaxDistance>8829</MaxDistance>
    <TypeOfDistance>AERIALDISTANCE</TypeOfDistance>
  </Volunteer>
  <Volunteer>
    <Id>277659804</Id>
    <FullName>Benjamin Young</FullName>
    <Phone>056-3210987</Phone>
    <Email>benjamin.young@example.com</Email>
    <Password>access123</Password>
    <FullAddress>Merkaz 99, Modiin</FullAddress>
    <Latitude>12.73</Latitude>
    <Longitude>-82.42</Longitude>
    <Role>VOLUNTEER</Role>
    <Active>true</Active>
    <MaxDistance>9339</MaxDistance>
    <TypeOfDistance>AERIALDISTANCE</TypeOfDistance>
  </Volunteer>
  <Volunteer>
    <Id>314458786</Id>
    <FullName>Mia Scott</FullName>
    <Phone>057-2109876</Phone>
    <Email>mia.scott@example.com</Email>
    <Password>12345qwerty</Password>
    <FullAddress>Dekel 4, Netivot</FullAddress>
    <Latitude>-51.3</Latitude>
    <Longitude>10.15</Longitude>
    <Role>DISTRICTMANAGER</Role>
    <Active>true</Active>
    <MaxDistance>2606</MaxDistance>
    <TypeOfDistance>AERIALDISTANCE</TypeOfDistance>
  </Volunteer>
  <Volunteer>
    <Id>316306421</Id>
    <FullName>Ethan Adams</FullName>
    <Phone>058-1098765</Phone>
    <Email>ethan.adams@example.com</Email>
    <Password>iloveme</Password>
    <FullAddress>Hahatzav 20, Kiryat Gat</FullAddress>
    <Latitude>-5.64</Latitude>
    <Longitude>47.72</Longitude>
    <Role>VOLUNTEER</Role>
    <Active>false</Active>
    <MaxDistance>11131</MaxDistance>
    <TypeOfDistance>AERIALDISTANCE</TypeOfDistance>
  </Volunteer>
  <Volunteer>
    <Id>220713249</Id>
    <FullName>Isabella King</FullName>
    <Phone>059-0987654</Phone>
    <Email>isabella.king@example.com</Email>
    <Password>mypassword01</Password>
    <FullAddress>Hahof 3, Bat Yam</FullAddress>
    <Latitude>40.58</Latitude>
    <Longitude>-68.09</Longitude>
    <Role>VOLUNTEER</Role>
    <Active>false</Active>
    <MaxDistance>9644</MaxDistance>
    <TypeOfDistance>AERIALDISTANCE</TypeOfDistance>
  </Volunteer>
  <Volunteer>
    <Id>279347262</Id>
    <FullName>Aiden Martinez</FullName>
    <Phone>050-9876543</Phone>
    <Email>aiden.martinez@example.com</Email>
    <Password>adminpassword</Password>
    <FullAddress>Hamavak 8, Ashkelon</FullAddress>
    <Latitude>11.09</Latitude>
    <Longitude>134.54</Longitude>
    <Role>VOLUNTEER</Role>
    <Active>true</Active>
    <MaxDistance>267</MaxDistance>
    <TypeOfDistance>AERIALDISTANCE</TypeOfDistance>
  </Volunteer>
  <Volunteer>
    <Id>331924202</Id>
    <FullName>Charlotte Lee</FullName>
    <Phone>051-8765432</Phone>
    <Email>charlotte.lee@example.com</Email>
    <Password>password!23</Password>
    <FullAddress>Hakikar 12, Ramla</FullAddress>
    <Latitude>-72.96</Latitude>
    <Longitude>-23.11</Longitude>
    <Role>VOLUNTEER</Role>
    <Active>true</Active>
    <MaxDistance>6375</MaxDistance>
    <TypeOfDistance>AERIALDISTANCE</TypeOfDistance>
  </Volunteer>
  <Volunteer>
    <Id>231688244</Id>
    <FullName>Lucas Perez</FullName>
    <Phone>052-7654321</Phone>
    <Email>lucas.perez@example.com</Email>
    <Password>123qwerty</Password>
    <FullAddress>Arava 25, Afula</FullAddress>
    <Latitude>34.88</Latitude>
    <Longitude>39.87</Longitude>
    <Role>DISTRICTMANAGER</Role>
    <Active>true</Active>
    <MaxDistance>933</MaxDistance>
    <TypeOfDistance>AERIALDISTANCE</TypeOfDistance>
  </Volunteer>
  <Volunteer>
    <Id>306045003</Id>
    <FullName>Amelia Rodriguez</FullName>
    <Phone>053-6543210</Phone>
    <Email>amelia.rodriguez@example.com</Email>
    <Password>letmein2023</Password>
    <FullAddress>Hayam 30, Tiberias</FullAddress>
    <Latitude>-28.14</Latitude>
    <Longitude>-116.97</Longitude>
    <Role>VOLUNTEER</Role>
    <Active>false</Active>
    <MaxDistance>5729</MaxDistance>
    <TypeOfDistance>AERIALDISTANCE</TypeOfDistance>
  </Volunteer>
  <Volunteer>
    <Id>389081722</Id>
    <FullName>Henry Green</FullName>
    <Phone>054-5432109</Phone>
    <Email>henry.green@example.com</Email>
    <Password>strongpass22</Password>
    <FullAddress>Marpe 40, Raanana</FullAddress>
    <Latitude>61.29</Latitude>
    <Longitude>107.33</Longitude>
    <Role>VOLUNTEER</Role>
    <Active>true</Active>
    <MaxDistance>5504</MaxDistance>
    <TypeOfDistance>AERIALDISTANCE</TypeOfDistance>
  </Volunteer>
  <Volunteer>
    <Id>372613112</Id>
    <FullName>Aria Hall</FullName>
    <Phone>055-4321098</Phone>
    <Email>aria.hall@example.com</Email>
    <Password>qwertz123</Password>
    <FullAddress>Technology 67, Petah Tikva</FullAddress>
    <Latitude>43.67</Latitude>
    <Longitude>-3.77</Longitude>
    <Role>VOLUNTEER</Role>
    <Active>true</Active>
    <MaxDistance>453</MaxDistance>
    <TypeOfDistance>AERIALDISTANCE</TypeOfDistance>
  </Volunteer>
  <Volunteer>
    <Id>346632126</Id>
    <FullName>Samuel Harris</FullName>
    <Phone>056-3210987</Phone>
    <Email>samuel.harris@example.com</Email>
    <Password>abcpassword</Password>
    <FullAddress>Gefen 22, Be'er Sheva</FullAddress>
    <Latitude>-44.51</Latitude>
    <Longitude>63.62</Longitude>
    <Role>VOLUNTEER</Role>
    <Active>true</Active>
    <MaxDistance>5041</MaxDistance>
    <TypeOfDistance>AERIALDISTANCE</TypeOfDistance>
  </Volunteer>
  <Volunteer>
    <Id>305399540</Id>
    <FullName>Ella Carter</FullName>
    <Phone>057-2109876</Phone>
    <Email>ella.carter@example.com</Email>
    <Password>mypassword@2024</Password>
    <FullAddress>Mitzpe 6, Givatayim</FullAddress>
    <Latitude>37.98</Latitude>
    <Longitude>80.11</Longitude>
    <Role>VOLUNTEER</Role>
    <Active>true</Active>
    <MaxDistance>4550</MaxDistance>
    <TypeOfDistance>AERIALDISTANCE</TypeOfDistance>
  </Volunteer>
  <Volunteer>
    <Id>382759538</Id>
    <FullName>David Walker</FullName>
    <Phone>058-1098765</Phone>
    <Email>david.walker@example.com</Email>
    <Password>passw0rd123</Password>
    <FullAddress>Ogen 75, Azor</FullAddress>
    <Latitude>27.16</Latitude>
    <Longitude>-131.07</Longitude>
    <Role>VOLUNTEER</Role>
    <Active>true</Active>
    <MaxDistance>3295</MaxDistance>
    <TypeOfDistance>AERIALDISTANCE</TypeOfDistance>
  </Volunteer>
  <Volunteer>
    <Id>392104495</Id>
    <FullName>Avery Thompson</FullName>
    <Phone>059-0987654</Phone>
    <Email>avery.thompson@example.com</Email>
    <Password>iloveyou1234</Password>
    <FullAddress>Herpatka 11, Jerusalem</FullAddress>
    <Latitude>-67.89</Latitude>
    <Longitude>-42.55</Longitude>
    <Role>DISTRICTMANAGER</Role>
    <Active>false</Active>
    <MaxDistance>6708</MaxDistance>
    <TypeOfDistance>AERIALDISTANCE</TypeOfDistance>
  </Volunteer>
  <Volunteer>
    <Id>224454019</Id>
    <FullName>Oliver Collins</FullName>
    <Phone>050-9876543</Phone>
    <Email>oliver.collins@example.com</Email>
    <Password>testpassword12</Password>
    <FullAddress>Sela 58, Tirat Carmel</FullAddress>
    <Latitude>-1.34</Latitude>
    <Longitude>141.08</Longitude>
    <Role>VOLUNTEER</Role>
    <Active>false</Active>
    <MaxDistance>312</MaxDistance>
    <TypeOfDistance>AERIALDISTANCE</TypeOfDistance>
  </Volunteer>
  <Volunteer>
    <Id>244978366</Id>
    <FullName>Sophie White</FullName>
    <Phone>051-8765432</Phone>
    <Email>sophie.white@example.com</Email>
    <Password>openai123</Password>
    <FullAddress>Atid 3, Kiryat Shmona</FullAddress>
    <Latitude>49.02</Latitude>
    <Longitude>24.39</Longitude>
    <Role>VOLUNTEER</Role>
    <Active>true</Active>
    <MaxDistance>12362</MaxDistance>
    <TypeOfDistance>AERIALDISTANCE</TypeOfDistance>
  </Volunteer>
  <Volunteer>
    <Id>245745483</Id>
    <FullName>William Wright</FullName>
    <Phone>052-7654321</Phone>
    <Email>william.wright@example.com</Email>
    <Password>adminsecure</Password>
    <FullAddress>Kokhavim 25, Haifa</FullAddress>
    <Latitude>50.87</Latitude>
    <Longitude>51.61</Longitude>
    <Role>VOLUNTEER</Role>
    <Active>false</Active>
    <MaxDistance>9807</MaxDistance>
    <TypeOfDistance>AERIALDISTANCE</TypeOfDistance>
  </Volunteer>
  <Volunteer>
    <Id>300217774</Id>
    <FullName>Megan Nelson</FullName>
    <Phone>053-6543210</Phone>
    <Email>megan.nelson@example.com</Email>
    <Password>securepassword01</Password>
    <FullAddress>Hama'arav 9, Acre</FullAddress>
    <Latitude>-32.54</Latitude>
    <Longitude>-73.9</Longitude>
    <Role>DISTRICTMANAGER</Role>
    <Active>true</Active>
    <MaxDistance>871</MaxDistance>
    <TypeOfDistance>AERIALDISTANCE</TypeOfDistance>
  </Volunteer>
  <Volunteer>
    <Id>308466932</Id>
    <FullName>Jack Brown</FullName>
    <Phone>054-5432109</Phone>
    <Email>jack.brown@example.com</Email>
    <Password>bestpassword!</Password>
    <FullAddress>Penina 14, Bnei Brak</FullAddress>
    <Latitude>65.72</Latitude>
    <Longitude>137.32</Longitude>
    <Role>VOLUNTEER</Role>
    <Active>true</Active>
    <MaxDistance>1419</MaxDistance>
    <TypeOfDistance>AERIALDISTANCE</TypeOfDistance>
  </Volunteer>
  <Volunteer>
    <Id>200367924</Id>
    <FullName>Madison Roberts</FullName>
    <Phone>055-4321098</Phone>
    <Email>madison.roberts@example.com</Email>
    <Password>chatrocks</Password>
    <FullAddress>Ir 90, Lod</FullAddress>
    <Latitude>21.55</Latitude>
    <Longitude>-114.98</Longitude>
    <Role>VOLUNTEER</Role>
    <Active>true</Active>
    <MaxDistance>6197</MaxDistance>
    <TypeOfDistance>AERIALDISTANCE</TypeOfDistance>
  </Volunteer>
  <Volunteer>
    <Id>255580632</Id>
    <FullName>Jacob Carter</FullName>
    <Phone>056-3210987</Phone>
    <Email>jacob.carter@example.com</Email>
    <Password>strongpass1</Password>
    <FullAddress>Gan 11, Kfar Yona</FullAddress>
    <Latitude>-16.9</Latitude>
    <Longitude>-120.6</Longitude>
    <Role>VOLUNTEER</Role>
    <Active>true</Active>
    <MaxDistance>3938</MaxDistance>
    <TypeOfDistance>AERIALDISTANCE</TypeOfDistance>
  </Volunteer>
  <Volunteer>
    <Id>350503126</Id>
    <FullName>Sophia Brooks</FullName>
    <Phone>057-2109876</Phone>
    <Email>sophia.brooks@example.com</Email>
    <Password>newpassword2024</Password>
    <FullAddress>Flag 77, Netanya</FullAddress>
    <Latitude>54.03</Latitude>
    <Longitude>48.01</Longitude>
    <Role>VOLUNTEER</Role>
    <Active>true</Active>
    <MaxDistance>2316</MaxDistance>
    <TypeOfDistance>AERIALDISTANCE</TypeOfDistance>
  </Volunteer>
  <Volunteer>
    <Id>381695251</Id>
    <FullName>Jackson Scott</FullName>
    <Phone>058-1098765</Phone>
    <Email>jackson.scott@example.com</Email>
    <Password>password01@</Password>
    <FullAddress>Boker 45, Eilat</FullAddress>
    <Latitude>-55.43</Latitude>
    <Longitude>-59.37</Longitude>
    <Role>VOLUNTEER</Role>
    <Active>false</Active>
    <MaxDistance>11636</MaxDistance>
    <TypeOfDistance>AERIALDISTANCE</TypeOfDistance>
  </Volunteer>
  <Volunteer>
    <Id>383306249</Id>
    <FullName>Grace Turner</FullName>
    <Phone>059-0987654</Phone>
    <Email>grace.turner@example.com</Email>
    <Password>welcome@123</Password>
    <FullAddress>Masila 32, Modiin</FullAddress>
    <Latitude>60.44</Latitude>
    <Longitude>16.94</Longitude>
    <Role>VOLUNTEER</Role>
    <Active>false</Active>
    <MaxDistance>1140</MaxDistance>
    <TypeOfDistance>AERIALDISTANCE</TypeOfDistance>
  </Volunteer>
  <Volunteer>
    <Id>209135519</Id>
    <FullName>Mason Miller</FullName>
    <Phone>050-9876543</Phone>
    <Email>mason.miller@example.com</Email>
    <Password>1234password</Password>
    <FullAddress>Yarden 3, Nahariya</FullAddress>
    <Latitude>19.92</Latitude>
    <Longitude>-80.23</Longitude>
    <Role>DISTRICTMANAGER</Role>
    <Active>false</Active>
    <MaxDistance>10018</MaxDistance>
    <TypeOfDistance>AERIALDISTANCE</TypeOfDistance>
  </Volunteer>
  <Volunteer>
    <Id>302463183</Id>
    <FullName>Liam King</FullName>
    <Phone>051-8765432</Phone>
    <Email>liam.king@example.com</Email>
    <Password>secret1234</Password>
    <FullAddress>Ayin 50, Migdal HaEmek</FullAddress>
    <Latitude>-9.35</Latitude>
    <Longitude>114.79</Longitude>
    <Role>VOLUNTEER</Role>
    <Active>false</Active>
    <MaxDistance>7599</MaxDistance>
    <TypeOfDistance>AERIALDISTANCE</TypeOfDistance>
  </Volunteer>
  <Volunteer>
    <Id>222028979</Id>
    <FullName>Charlotte Walker</FullName>
    <Phone>052-7654321</Phone>
    <Email>charlotte.walker@example.com</Email>
    <Password>tbot2023</Password>
    <FullAddress>Dekel 99, Petah Tikva</FullAddress>
    <Latitude>68.78</Latitude>
    <Longitude>-160.5</Longitude>
    <Role>DISTRICTMANAGER</Role>
    <Active>false</Active>
    <MaxDistance>7664</MaxDistance>
    <TypeOfDistance>AERIALDISTANCE</TypeOfDistance>
  </Volunteer>
  <Volunteer>
    <Id>346472100</Id>
    <FullName>Daniel Evans</FullName>
    <Phone>053-6543210</Phone>
    <Email>daniel.evans@example.com</Email>
    <Password>securechatgpt</Password>
    <FullAddress>Kfar 8, Gedera</FullAddress>
    <Latitude>-14.47</Latitude>
    <Longitude>70.77</Longitude>
    <Role>VOLUNTEER</Role>
    <Active>true</Active>
    <MaxDistance>87</MaxDistance>
    <TypeOfDistance>AERIALDISTANCE</TypeOfDistance>
  </Volunteer>
  <Volunteer>
    <Id>295080418</Id>
    <FullName>Ella Green</FullName>
    <Phone>054-5432109</Phone>
    <Email>ella.green@example.com</Email>
    <Password>pass1234</Password>
    <FullAddress>Nof 3, Herzliya</FullAddress>
    <Latitude>36.09</Latitude>
    <Longitude>53.2</Longitude>
    <Role>VOLUNTEER</Role>
    <Active>true</Active>
    <MaxDistance>7150</MaxDistance>
    <TypeOfDistance>AERIALDISTANCE</TypeOfDistance>
  </Volunteer>
  <Volunteer>
    <Id>289575711</Id>
    <FullName>Oliver Evans</FullName>
    <Phone>055-4321098</Phone>
    <Email>oliver.evans@example.com</Email>
    <Password>qwertz!234</Password>
    <FullAddress>Geva 60, Ashkelon</FullAddress>
    <Latitude>56.47</Latitude>
    <Longitude>-9.88</Longitude>
    <Role>VOLUNTEER</Role>
    <Active>false</Active>
    <MaxDistance>4177</MaxDistance>
    <TypeOfDistance>AERIALDISTANCE</TypeOfDistance>
  </Volunteer>
  <Volunteer>
    <Id>291942778</Id>
    <FullName>Harper Lewis</FullName>
    <Phone>056-3210987</Phone>
    <Email>harper.lewis@example.com</Email>
    <Password>supersecurepass</Password>
    <FullAddress>Hok 11, Haifa</FullAddress>
    <Latitude>-3.25</Latitude>
    <Longitude>34.06</Longitude>
    <Role>DISTRICTMANAGER</Role>
    <Active>true</Active>
    <MaxDistance>12254</MaxDistance>
    <TypeOfDistance>AERIALDISTANCE</TypeOfDistance>
  </Volunteer>
  <Volunteer>
    <Id>218812119</Id>
    <FullName>Benjamin Lee</FullName>
    <Phone>057-2109876</Phone>
    <Email>benjamin.lee@example.com</Email>
    <Password>access1234</Password>
    <FullAddress>Geshem 15, Safed</FullAddress>
    <Latitude>45.62</Latitude>
    <Longitude>-126.77</Longitude>
    <Role>VOLUNTEER</Role>
    <Active>false</Active>
    <MaxDistance>9905</MaxDistance>
    <TypeOfDistance>AERIALDISTANCE</TypeOfDistance>
  </Volunteer>
  <Volunteer>
    <Id>303808614</Id>
    <FullName>Victoria Allen</FullName>
    <Phone>058-1098765</Phone>
    <Email>victoria.allen@example.com</Email>
    <Password>strong2024pass</Password>
    <FullAddress>Horef 2, Jerusalem</FullAddress>
    <Latitude>-21.88</Latitude>
    <Longitude>96.23</Longitude>
    <Role>DISTRICTMANAGER</Role>
    <Active>true</Active>
    <MaxDistance>10511</MaxDistance>
    <TypeOfDistance>AERIALDISTANCE</TypeOfDistance>
  </Volunteer>
  <Volunteer>
    <Id>330282229</Id>
    <FullName>James White</FullName>
    <Phone>059-0987654</Phone>
    <Email>james.white@example.com</Email>
    <Password>ilovechatgpt123</Password>
    <FullAddress>Heder 30, Caesarea</FullAddress>
    <Latitude>11.68</Latitude>
    <Longitude>25.76</Longitude>
    <Role>VOLUNTEER</Role>
    <Active>false</Active>
    <MaxDistance>7498</MaxDistance>
    <TypeOfDistance>AERIALDISTANCE</TypeOfDistance>
  </Volunteer>
  <Volunteer>
    <Id>341924491</Id>
    <FullName>Natalie Scott</FullName>
    <Phone>054-0988684</Phone>
    <Email>natalie.scott@example.com</Email>
    <Password>admin1password</Password>
    <FullAddress>Binyan 7, Ashdod</FullAddress>
    <Latitude>53.94</Latitude>
    <Longitude>-110.89</Longitude>
    <Role>VOLUNTEER</Role>
    <Active>false</Active>
    <MaxDistance>6568</MaxDistance>
    <TypeOfDistance>AERIALDISTANCE</TypeOfDistance>
  </Volunteer>
  <Volunteer>
    <Id>281425777</Id>
    <FullName>Evan Phillips</FullName>
    <Phone>052-9989654</Phone>
    <Email>evan.phillips@example.com</Email>
    <Password>testpass1234</Password>
    <FullAddress>Derech 56, Tel Aviv</FullAddress>
    <Latitude>23.77</Latitude>
    <Longitude>6.83</Longitude>
    <Role>VOLUNTEER</Role>
    <Active>false</Active>
    <MaxDistance>6853</MaxDistance>
    <TypeOfDistance>AERIALDISTANCE</TypeOfDistance>
  </Volunteer>
</ArrayOfVolunteer>