<?xml version="1.0" encoding="utf-8"?>
<ArrayOfVolunteer xmlns:xsi="http://www.w3.org/2001/XMLSchema-instance" xmlns:xsd="http://www.w3.org/2001/XMLSchema">
  <Volunteer>
    <Id>305121685</Id>
    <FullName>John Doe</FullName>
    <Phone>052-1234567</Phone>
    <Email>john.doe@example.com</Email>
    <Password>password123</Password>
    <FullAddress>Rothschild Boulevard, Tel Aviv</FullAddress>
    <Latitude>32.0688</Latitude>
    <Longitude>34.7818</Longitude>
    <Role>ADMIN</Role>
    <Active>false</Active>
    <MaxDistance>3574</MaxDistance>
    <TypeOfDistance>AERIALDISTANCE</TypeOfDistance>
  </Volunteer>
  <Volunteer>
    <Id>371118394</Id>
    <FullName>Jane Smith</FullName>
    <Phone>053-2345678</Phone>
    <Email>jane.smith@example.com</Email>
    <Password>abc123</Password>
    <FullAddress>King George St, Tel Aviv-Yafo, Israel</FullAddress>
    <Latitude>32.0667</Latitude>
    <Longitude>34.773</Longitude>
    <Role>VOLUNTEER</Role>
    <Active>true</Active>
    <MaxDistance>9424</MaxDistance>
    <TypeOfDistance>AERIALDISTANCE</TypeOfDistance>
  </Volunteer>
  <Volunteer>
    <Id>360883250</Id>
    <FullName>Michael Johnson</FullName>
    <Phone>054-3456789</Phone>
    <Email>michael.johnson@example.com</Email>
    <Password>qwerty123</Password>
    <FullAddress>Herzl St, Tel Aviv-Jaffa</FullAddress>
    <Latitude>32.0615</Latitude>
    <Longitude>34.7715</Longitude>
    <Role>VOLUNTEER</Role>
    <Active>true</Active>
    <MaxDistance>844</MaxDistance>
    <TypeOfDistance>AERIALDISTANCE</TypeOfDistance>
  </Volunteer>
  <Volunteer>
    <Id>343176789</Id>
    <FullName>Emily Davis</FullName>
    <Phone>055-4567890</Phone>
    <Email>emily.davis@example.com</Email>
    <Password>letmein2024</Password>
    <FullAddress>Dizengoff St, Tel Aviv-Yafo, Israel</FullAddress>
    <Latitude>32.0853</Latitude>
    <Longitude>34.7758</Longitude>
    <Role>VOLUNTEER</Role>
    <Active>false</Active>
    <MaxDistance>2598</MaxDistance>
    <TypeOfDistance>AERIALDISTANCE</TypeOfDistance>
  </Volunteer>
  <Volunteer>
    <Id>267151145</Id>
    <FullName>Chris Brown</FullName>
    <Phone>056-5678901</Phone>
    <Email>chris.brown@example.com</Email>
    <Password>welcome1</Password>
    <FullAddress>Allenby St, Tel Aviv-Yafo, Israel</FullAddress>
    <Latitude>32.0733</Latitude>
    <Longitude>34.7695</Longitude>
    <Role>VOLUNTEER</Role>
    <Active>false</Active>
    <MaxDistance>1017</MaxDistance>
    <TypeOfDistance>AERIALDISTANCE</TypeOfDistance>
  </Volunteer>
  <Volunteer>
    <Id>232829306</Id>
    <FullName>Jessica Taylor</FullName>
    <Phone>057-6789012</Phone>
    <Email>jessica.taylor@example.com</Email>
    <Password>1234abcd</Password>
    <FullAddress>Shaul HaMelech Blvd 37, Tel Aviv</FullAddress>
    <Latitude>32.0729</Latitude>
    <Longitude>34.7815</Longitude>
    <Role>VOLUNTEER</Role>
    <Active>true</Active>
    <MaxDistance>6387</MaxDistance>
    <TypeOfDistance>AERIALDISTANCE</TypeOfDistance>
  </Volunteer>
  <Volunteer>
    <Id>300383233</Id>
    <FullName>David Wilson</FullName>
    <Phone>058-7890123</Phone>
    <Email>david.wilson@example.com</Email>
    <Password>iloveyou99</Password>
    <FullAddress>Hayarkon St, Tel Aviv-Yafo, Israel</FullAddress>
    <Latitude>32.085</Latitude>
    <Longitude>34.7712</Longitude>
    <Role>VOLUNTEER</Role>
    <Active>false</Active>
    <MaxDistance>8054</MaxDistance>
    <TypeOfDistance>AERIALDISTANCE</TypeOfDistance>
  </Volunteer>
  <Volunteer>
    <Id>258425125</Id>
    <FullName>Sophia Moore</FullName>
    <Phone>059-8901234</Phone>
    <Email>sophia.moore@example.com</Email>
    <Password>admin123</Password>
    <FullAddress>Yafo, Jerusalem, Israel</FullAddress>
    <Latitude>31.7683</Latitude>
    <Longitude>35.2137</Longitude>
    <Role>VOLUNTEER</Role>
    <Active>false</Active>
    <MaxDistance>7950</MaxDistance>
    <TypeOfDistance>AERIALDISTANCE</TypeOfDistance>
  </Volunteer>
  <Volunteer>
    <Id>287119813</Id>
    <FullName>Daniel Anderson</FullName>
    <Phone>050-9876543</Phone>
    <Email>daniel.anderson@example.com</Email>
    <Password>secretpass</Password>
    <FullAddress>King David Street 23, Jerusalem</FullAddress>
    <Latitude>31.7717</Latitude>
    <Longitude>35.213</Longitude>
    <Role>VOLUNTEER</Role>
    <Active>false</Active>
    <MaxDistance>2001</MaxDistance>
    <TypeOfDistance>AERIALDISTANCE</TypeOfDistance>
  </Volunteer>
  <Volunteer>
    <Id>238729385</Id>
    <FullName>Olivia Lee</FullName>
    <Phone>051-8765432</Phone>
    <Email>olivia.lee@example.com</Email>
    <Password>letmein22</Password>
    <FullAddress>Emek Refaim, Jerusalem, Israel</FullAddress>
    <Latitude>31.7554</Latitude>
    <Longitude>35.2281</Longitude>
    <Role>VOLUNTEER</Role>
    <Active>false</Active>
    <MaxDistance>9998</MaxDistance>
    <TypeOfDistance>AERIALDISTANCE</TypeOfDistance>
  </Volunteer>
  <Volunteer>
    <Id>316022223</Id>
    <FullName>Matthew Harris</FullName>
    <Phone>052-7654321</Phone>
    <Email>matthew.harris@example.com</Email>
    <Password>secure2023</Password>
    <FullAddress>Weizman St, Ra'Anana, Israel</FullAddress>
    <Latitude>32.1913</Latitude>
    <Longitude>34.8866</Longitude>
    <Role>VOLUNTEER</Role>
    <Active>false</Active>
    <MaxDistance>10080</MaxDistance>
    <TypeOfDistance>AERIALDISTANCE</TypeOfDistance>
  </Volunteer>
  <Volunteer>
    <Id>244113281</Id>
    <FullName>Lily Clark</FullName>
    <Phone>053-6543210</Phone>
    <Email>lily.clark@example.com</Email>
    <Password>testpass1</Password>
    <FullAddress>HaChoref 2, Jerusalem</FullAddress>
    <Latitude>31.7817</Latitude>
    <Longitude>35.215</Longitude>
    <Role>VOLUNTEER</Role>
    <Active>false</Active>
    <MaxDistance>11211</MaxDistance>
    <TypeOfDistance>AERIALDISTANCE</TypeOfDistance>
  </Volunteer>
  <Volunteer>
    <Id>222962498</Id>
    <FullName>James Walker</FullName>
    <Phone>054-5432109</Phone>
    <Email>james.walker@example.com</Email>
    <Password>password2024</Password>
    <FullAddress>Sderot Ben Gurion, Haifa, Israel</FullAddress>
    <Latitude>32.794</Latitude>
    <Longitude>34.9896</Longitude>
    <Role>VOLUNTEER</Role>
    <Active>true</Active>
    <MaxDistance>10720</MaxDistance>
    <TypeOfDistance>AERIALDISTANCE</TypeOfDistance>
  </Volunteer>
  <Volunteer>
    <Id>310129382</Id>
    <FullName>Chloe Hall</FullName>
    <Phone>055-4321098</Phone>
    <Email>chloe.hall@example.com</Email>
    <Password>mysecret123</Password>
    <FullAddress>Herzl St, Haifa, Israel</FullAddress>
    <Latitude>32.7946</Latitude>
    <Longitude>34.9858</Longitude>
    <Role>VOLUNTEER</Role>
    <Active>true</Active>
    <MaxDistance>6815</MaxDistance>
    <TypeOfDistance>AERIALDISTANCE</TypeOfDistance>
  </Volunteer>
  <Volunteer>
    <Id>373415031</Id>
    <FullName>Benjamin Young</FullName>
    <Phone>056-3210987</Phone>
    <Email>benjamin.young@example.com</Email>
    <Password>access123</Password>
    <FullAddress>Hanassi Blvd, Haifa, Israel</FullAddress>
    <Latitude>32.8054</Latitude>
    <Longitude>34.9956</Longitude>
    <Role>VOLUNTEER</Role>
    <Active>false</Active>
    <MaxDistance>4287</MaxDistance>
    <TypeOfDistance>AERIALDISTANCE</TypeOfDistance>
  </Volunteer>
  <Volunteer>
    <Id>243011335</Id>
    <FullName>Mia Scott</FullName>
    <Phone>057-2109876</Phone>
    <Email>mia.scott@example.com</Email>
    <Password>12345qwerty</Password>
    <FullAddress>HaKochavim 25, Haifa</FullAddress>
    <Latitude>32.79</Latitude>
    <Longitude>34.995</Longitude>
    <Role>VOLUNTEER</Role>
    <Active>false</Active>
    <MaxDistance>3500</MaxDistance>
    <TypeOfDistance>AERIALDISTANCE</TypeOfDistance>
  </Volunteer>
  <Volunteer>
    <Id>373389473</Id>
    <FullName>Ethan Adams</FullName>
    <Phone>058-1098765</Phone>
    <Email>ethan.adams@example.com</Email>
    <Password>iloveme</Password>
    <FullAddress>Ma'Abarot, Haifa, Israel</FullAddress>
    <Latitude>32.8223</Latitude>
    <Longitude>34.9939</Longitude>
    <Role>VOLUNTEER</Role>
    <Active>false</Active>
    <MaxDistance>946</MaxDistance>
    <TypeOfDistance>AERIALDISTANCE</TypeOfDistance>
  </Volunteer>
  <Volunteer>
    <Id>242840277</Id>
    <FullName>Isabella King</FullName>
    <Phone>059-0987654</Phone>
    <Email>isabella.king@example.com</Email>
    <Password>mypassword01</Password>
    <FullAddress>Herzl, Netanya, Israel</FullAddress>
    <Latitude>32.337</Latitude>
    <Longitude>34.867</Longitude>
    <Role>VOLUNTEER</Role>
    <Active>false</Active>
    <MaxDistance>10126</MaxDistance>
    <TypeOfDistance>AERIALDISTANCE</TypeOfDistance>
  </Volunteer>
  <Volunteer>
    <Id>392887778</Id>
    <FullName>Aiden Martinez</FullName>
    <Phone>050-9876543</Phone>
    <Email>aiden.martinez@example.com</Email>
    <Password>adminpassword</Password>
    <FullAddress>Hadegel St, Tel Aviv-Yafo, Israel</FullAddress>
    <Latitude>32.0794</Latitude>
    <Longitude>34.8116</Longitude>
    <Role>VOLUNTEER</Role>
    <Active>true</Active>
    <MaxDistance>5592</MaxDistance>
    <TypeOfDistance>AERIALDISTANCE</TypeOfDistance>
  </Volunteer>
  <Volunteer>
    <Id>270350993</Id>
    <FullName>Charlotte Lee</FullName>
    <Phone>051-8765432</Phone>
    <Email>charlotte.lee@example.com</Email>
    <Password>password!23</Password>
    <FullAddress>Ha'Atsmaut Blvd, Bat Yam, Israel</FullAddress>
    <Latitude>32.0224</Latitude>
    <Longitude>34.8125</Longitude>
    <Role>VOLUNTEER</Role>
    <Active>false</Active>
    <MaxDistance>4027</MaxDistance>
    <TypeOfDistance>AERIALDISTANCE</TypeOfDistance>
  </Volunteer>
  <Volunteer>
    <Id>358112687</Id>
    <FullName>Lucas Perez</FullName>
    <Phone>052-7654321</Phone>
    <Email>lucas.perez@example.com</Email>
    <Password>123qwerty</Password>
    <FullAddress>Ha-Rav Nisanbaum St, Bat Yam, Israel</FullAddress>
    <Latitude>32.033</Latitude>
    <Longitude>34.6435</Longitude>
    <Role>VOLUNTEER</Role>
    <Active>false</Active>
    <MaxDistance>11026</MaxDistance>
    <TypeOfDistance>AERIALDISTANCE</TypeOfDistance>
  </Volunteer>
  <Volunteer>
    <Id>236982750</Id>
    <FullName>Amelia Rodriguez</FullName>
    <Phone>053-6543210</Phone>
    <Email>amelia.rodriguez@example.com</Email>
    <Password>letmein2023</Password>
    <FullAddress>Hanamal, Ashdod, Israel</FullAddress>
    <Latitude>31.8011</Latitude>
    <Longitude>34.6487</Longitude>
    <Role>VOLUNTEER</Role>
    <Active>true</Active>
    <MaxDistance>9665</MaxDistance>
    <TypeOfDistance>AERIALDISTANCE</TypeOfDistance>
  </Volunteer>
  <Volunteer>
    <Id>285510073</Id>
    <FullName>Henry Green</FullName>
    <Phone>054-5432109</Phone>
    <Email>henry.green@example.com</Email>
    <Password>strongpass22</Password>
    <FullAddress>Sderot Menachem Begin, Ashdod, Israel</FullAddress>
    <Latitude>31.801</Latitude>
    <Longitude>34.6491</Longitude>
    <Role>VOLUNTEER</Role>
    <Active>false</Active>
    <MaxDistance>1079</MaxDistance>
    <TypeOfDistance>AERIALDISTANCE</TypeOfDistance>
  </Volunteer>
  <Volunteer>
    <Id>209170971</Id>
    <FullName>Aria Hall</FullName>
    <Phone>055-4321098</Phone>
    <Email>aria.hall@example.com</Email>
    <Password>qwertz123</Password>
    <FullAddress>Moshe Dayan Avenue, Ashdod, Israel</FullAddress>
    <Latitude>31.803</Latitude>
    <Longitude>34.5717</Longitude>
    <Role>VOLUNTEER</Role>
    <Active>false</Active>
    <MaxDistance>6825</MaxDistance>
    <TypeOfDistance>AERIALDISTANCE</TypeOfDistance>
  </Volunteer>
  <Volunteer>
    <Id>271888559</Id>
    <FullName>Samuel Harris</FullName>
    <Phone>056-3210987</Phone>
    <Email>samuel.harris@example.com</Email>
    <Password>abcpassword</Password>
    <FullAddress>Ben Gurion 11, Ashkelon</FullAddress>
    <Latitude>31.669</Latitude>
    <Longitude>34.574</Longitude>
    <Role>VOLUNTEER</Role>
    <Active>false</Active>
    <MaxDistance>4796</MaxDistance>
    <TypeOfDistance>AERIALDISTANCE</TypeOfDistance>
  </Volunteer>
  <Volunteer>
    <Id>256990217</Id>
    <FullName>Ella Carter</FullName>
    <Phone>057-2109876</Phone>
    <Email>ella.carter@example.com</Email>
    <Password>mypassword@2024</Password>
    <FullAddress>Arye Tagar St, Ashkelon, Israel</FullAddress>
    <Latitude>31.6685</Latitude>
    <Longitude>34.9162</Longitude>
    <Role>VOLUNTEER</Role>
    <Active>false</Active>
    <MaxDistance>8633</MaxDistance>
    <TypeOfDistance>AERIALDISTANCE</TypeOfDistance>
  </Volunteer>
  <Volunteer>
    <Id>351296550</Id>
    <FullName>David Walker</FullName>
    <Phone>058-1098765</Phone>
    <Email>david.walker@example.com</Email>
    <Password>passw0rd123</Password>
    <FullAddress>Sderot Rothschild, Hadera, Israel</FullAddress>
    <Latitude>32.4332</Latitude>
    <Longitude>34.922</Longitude>
    <Role>VOLUNTEER</Role>
    <Active>true</Active>
    <MaxDistance>3121</MaxDistance>
    <TypeOfDistance>AERIALDISTANCE</TypeOfDistance>
  </Volunteer>
  <Volunteer>
    <Id>258698130</Id>
    <FullName>Avery Thompson</FullName>
    <Phone>059-0987654</Phone>
    <Email>avery.thompson@example.com</Email>
    <Password>iloveyou1234</Password>
    <FullAddress>Hasela St, Atlit, Israel</FullAddress>
    <Latitude>32.6374</Latitude>
    <Longitude>34.8944</Longitude>
    <Role>VOLUNTEER</Role>
    <Active>true</Active>
    <MaxDistance>9041</MaxDistance>
    <TypeOfDistance>AERIALDISTANCE</TypeOfDistance>
  </Volunteer>
  <Volunteer>
    <Id>206767784</Id>
    <FullName>Oliver Collins</FullName>
    <Phone>050-9876543</Phone>
    <Email>oliver.collins@example.com</Email>
    <Password>testpassword12</Password>
    <FullAddress>Herzl St, Lod, Israel</FullAddress>
    <Latitude>31.9515</Latitude>
    <Longitude>34.8961</Longitude>
    <Role>VOLUNTEER</Role>
    <Active>true</Active>
    <MaxDistance>5244</MaxDistance>
    <TypeOfDistance>AERIALDISTANCE</TypeOfDistance>
  </Volunteer>
  <Volunteer>
    <Id>355746884</Id>
    <FullName>Sophie White</FullName>
    <Phone>051-8765432</Phone>
    <Email>sophie.white@example.com</Email>
    <Password>openai123</Password>
    <FullAddress>Dani Mass St, Lod, Israel</FullAddress>
    <Latitude>31.9511</Latitude>
    <Longitude>34.87</Longitude>
    <Role>VOLUNTEER</Role>
    <Active>true</Active>
    <MaxDistance>117</MaxDistance>
    <TypeOfDistance>AERIALDISTANCE</TypeOfDistance>
  </Volunteer>
  <Volunteer>
    <Id>223607374</Id>
    <FullName>William Wright</FullName>
    <Phone>052-7654321</Phone>
    <Email>william.wright@example.com</Email>
    <Password>adminsecure</Password>
    <FullAddress>David Remez St, Or Yehuda, Israel</FullAddress>
    <Latitude>31.9615</Latitude>
    <Longitude>34.839</Longitude>
    <Role>VOLUNTEER</Role>
    <Active>true</Active>
    <MaxDistance>6127</MaxDistance>
    <TypeOfDistance>AERIALDISTANCE</TypeOfDistance>
  </Volunteer>
  <Volunteer>
    <Id>279642677</Id>
    <FullName>Megan Nelson</FullName>
    <Phone>053-6543210</Phone>
    <Email>megan.nelson@example.com</Email>
    <Password>securepassword01</Password>
    <FullAddress>Hagdud Haivri St, Ra'anana, Israel</FullAddress>
    <Latitude>32.185</Latitude>
    <Longitude>34.8462</Longitude>
    <Role>VOLUNTEER</Role>
    <Active>false</Active>
    <MaxDistance>6303</MaxDistance>
    <TypeOfDistance>AERIALDISTANCE</TypeOfDistance>
  </Volunteer>
  <Volunteer>
    <Id>237915258</Id>
    <FullName>Jack Brown</FullName>
    <Phone>054-5432109</Phone>
    <Email>jack.brown@example.com</Email>
    <Password>bestpassword!</Password>
    <FullAddress>Haahot Haya Oster St Ramat Gan, Ramat Gan, Israel</FullAddress>
    <Latitude>32.0685</Latitude>
    <Longitude>34.8408</Longitude>
    <Role>VOLUNTEER</Role>
    <Active>true</Active>
    <MaxDistance>7749</MaxDistance>
    <TypeOfDistance>AERIALDISTANCE</TypeOfDistance>
  </Volunteer>
  <Volunteer>
    <Id>331247688</Id>
    <FullName>Madison Roberts</FullName>
    <Phone>055-4321098</Phone>
    <Email>madison.roberts@example.com</Email>
    <Password>chatrocks</Password>
    <FullAddress>Ahuza St, Ra'Anana, Israel</FullAddress>
    <Latitude>32.183</Latitude>
    <Longitude>34.8522</Longitude>
    <Role>VOLUNTEER</Role>
    <Active>true</Active>
    <MaxDistance>10376</MaxDistance>
    <TypeOfDistance>AERIALDISTANCE</TypeOfDistance>
  </Volunteer>
  <Volunteer>
    <Id>234754476</Id>
    <FullName>Jacob Carter</FullName>
    <Phone>056-3210987</Phone>
    <Email>jacob.carter@example.com</Email>
    <Password>strongpass1</Password>
    <FullAddress>Keren Hayesod St, Ra'Anana, Israel</FullAddress>
    <Latitude>32.1797</Latitude>
    <Longitude>34.8555</Longitude>
    <Role>VOLUNTEER</Role>
    <Active>true</Active>
    <MaxDistance>1900</MaxDistance>
    <TypeOfDistance>AERIALDISTANCE</TypeOfDistance>
  </Volunteer>
  <Volunteer>
    <Id>362798376</Id>
    <FullName>Sophia Brooks</FullName>
    <Phone>057-2109876</Phone>
    <Email>sophia.brooks@example.com</Email>
    <Password>newpassword2024</Password>
    <FullAddress>Derech Jaffa, Tel Aviv-Yafo, Israel</FullAddress>
    <Latitude>32.0628</Latitude>
    <Longitude>34.8689</Longitude>
    <Role>VOLUNTEER</Role>
    <Active>true</Active>
    <MaxDistance>6816</MaxDistance>
    <TypeOfDistance>AERIALDISTANCE</TypeOfDistance>
  </Volunteer>
  <Volunteer>
    <Id>390518496</Id>
    <FullName>Jackson Scott</FullName>
    <Phone>058-1098765</Phone>
    <Email>jackson.scott@example.com</Email>
    <Password>password01@</Password>
    <FullAddress>Menachem Begin, Petaẖ Tiqwa, Israel</FullAddress>
    <Latitude>32.091</Latitude>
    <Longitude>34.8803</Longitude>
    <Role>VOLUNTEER</Role>
    <Active>true</Active>
    <MaxDistance>6538</MaxDistance>
    <TypeOfDistance>AERIALDISTANCE</TypeOfDistance>
  </Volunteer>
  <Volunteer>
    <Id>325477352</Id>
    <FullName>Grace Turner</FullName>
    <Phone>059-0987654</Phone>
    <Email>grace.turner@example.com</Email>
    <Password>welcome@123</Password>
    <FullAddress>Katamon 14, Jerusalem</FullAddress>
    <Latitude>32.09</Latitude>
    <Longitude>34.784</Longitude>
    <Role>VOLUNTEER</Role>
    <Active>true</Active>
    <MaxDistance>5602</MaxDistance>
    <TypeOfDistance>AERIALDISTANCE</TypeOfDistance>
  </Volunteer>
  <Volunteer>
    <Id>238502035</Id>
    <FullName>Mason Miller</FullName>
    <Phone>050-9876543</Phone>
    <Email>mason.miller@example.com</Email>
    <Password>1234password</Password>
    <FullAddress>Em Hamoshavot Rd 99, Petah Tikva</FullAddress>
    <Latitude>32.095</Latitude>
    <Longitude>34.79</Longitude>
    <Role>VOLUNTEER</Role>
    <Active>false</Active>
    <MaxDistance>7738</MaxDistance>
    <TypeOfDistance>AERIALDISTANCE</TypeOfDistance>
  </Volunteer>
  <Volunteer>
    <Id>321246554</Id>
    <FullName>Liam King</FullName>
    <Phone>051-8765432</Phone>
    <Email>liam.king@example.com</Email>
    <Password>secret1234</Password>
    <FullAddress>Weizmann St, Kfar Saba, Israel</FullAddress>
    <Latitude>32.1665</Latitude>
    <Longitude>34.842</Longitude>
    <Role>VOLUNTEER</Role>
    <Active>true</Active>
    <MaxDistance>9809</MaxDistance>
    <TypeOfDistance>AERIALDISTANCE</TypeOfDistance>
  </Volunteer>
  <Volunteer>
    <Id>363955057</Id>
    <FullName>Charlotte Walker</FullName>
    <Phone>052-7654321</Phone>
    <Email>charlotte.walker@example.com</Email>
    <Password>tbot2023</Password>
    <FullAddress>Ha-Palmakh St, Ra'Anana, Israel</FullAddress>
    <Latitude>32.1915</Latitude>
    <Longitude>34.8402</Longitude>
    <Role>VOLUNTEER</Role>
    <Active>false</Active>
    <MaxDistance>3697</MaxDistance>
    <TypeOfDistance>AERIALDISTANCE</TypeOfDistance>
  </Volunteer>
  <Volunteer>
    <Id>211819753</Id>
    <FullName>Daniel Evans</FullName>
    <Phone>053-6543210</Phone>
    <Email>daniel.evans@example.com</Email>
    <Password>securechatgpt</Password>
    <FullAddress>Haenergia St, Be'Er Sheva, Israel</FullAddress>
    <Latitude>31.252</Latitude>
    <Longitude>34.8425</Longitude>
    <Role>VOLUNTEER</Role>
    <Active>true</Active>
    <MaxDistance>38.88457315942968</MaxDistance>
    <TypeOfDistance>AERIALDISTANCE</TypeOfDistance>
  </Volunteer>
  <Volunteer>
    <Id>361224479</Id>
    <FullName>James White</FullName>
    <Phone>059-0987654</Phone>
    <Email>james.white@example.com</Email>
    <Password>ilovechatgpt123</Password>
    <FullAddress>Tel Hai St, Qiryat Shemona, Israel</FullAddress>
    <Latitude>33.2851</Latitude>
    <Longitude>35.5779</Longitude>
    <Role>VOLUNTEER</Role>
    <Active>true</Active>
    <MaxDistance>29.100637251600315</MaxDistance>
    <TypeOfDistance>AERIALDISTANCE</TypeOfDistance>
  </Volunteer>
  <Volunteer>
    <Id>238432628</Id>
    <FullName>Natalie Scott</FullName>
    <Phone>054-0988684</Phone>
    <Email>natalie.scott@example.com</Email>
    <Password>admin1password</Password>
    <FullAddress>Sderot Haatsma'Ut, Kiryat Gat, Israel</FullAddress>
    <Latitude>31.612</Latitude>
    <Longitude>34.7918</Longitude>
    <Role>VOLUNTEER</Role>
    <Active>true</Active>
    <MaxDistance>16.13322387611047</MaxDistance>
    <TypeOfDistance>AERIALDISTANCE</TypeOfDistance>
  </Volunteer>
  <Volunteer>
    <Id>397966674</Id>
    <FullName>Evan Phillips</FullName>
    <Phone>052-9989654</Phone>
    <Email>evan.phillips@example.com</Email>
    <Password>testpass1234</Password>
    <FullAddress>HaDekel, Netivot, Israel</FullAddress>
    <Latitude>31.401</Latitude>
    <Longitude>34.681</Longitude>
    <Role>VOLUNTEER</Role>
    <Active>false</Active>
    <MaxDistance>7642</MaxDistance>
    <TypeOfDistance>AERIALDISTANCE</TypeOfDistance>
  </Volunteer>
  <Volunteer>
    <Id>381124524</Id>
    <FullName>Ella Green</FullName>
    <Phone>054-5432109</Phone>
    <Email>ella.green@example.com</Email>
    <Password>pass1234</Password>
    <FullAddress>Ha-Palmakh St, Be'Er Sheva, Israel</FullAddress>
    <Latitude>31.2571</Latitude>
    <Longitude>35.5318</Longitude>
    <Role>VOLUNTEER</Role>
    <Active>true</Active>
    <MaxDistance>1889</MaxDistance>
    <TypeOfDistance>AERIALDISTANCE</TypeOfDistance>
  </Volunteer>
  <Volunteer>
    <Id>257615195</Id>
    <FullName>Oliver Evans</FullName>
    <Phone>055-4321098</Phone>
    <Email>oliver.evans@example.com</Email>
    <Password>qwertz!234</Password>
    <FullAddress>Harav Kook St, Hertsliya, Israel</FullAddress>
    <Latitude>32.1653</Latitude>
    <Longitude>35.5779</Longitude>
    <Role>VOLUNTEER</Role>
    <Active>false</Active>
    <MaxDistance>1699</MaxDistance>
    <TypeOfDistance>AERIALDISTANCE</TypeOfDistance>
  </Volunteer>
  <Volunteer>
    <Id>326761104</Id>
    <FullName>Harper Lewis</FullName>
    <Phone>056-3210987</Phone>
    <Email>harper.lewis@example.com</Email>
    <Password>supersecurepass</Password>
    <FullAddress>Yehuda Halevi St, Hertsliya, Israel</FullAddress>
    <Latitude>32.1668</Latitude>
    <Longitude>34.7918</Longitude>
    <Role>VOLUNTEER</Role>
    <Active>true</Active>
    <MaxDistance>3808</MaxDistance>
    <TypeOfDistance>AERIALDISTANCE</TypeOfDistance>
  </Volunteer>
  <Volunteer>
    <Id>211414214</Id>
    <FullName>Benjamin Lee</FullName>
    <Phone>057-2109876</Phone>
    <Email>benjamin.lee@example.com</Email>
    <Password>access1234</Password>
    <FullAddress>Ha-Galil St, Ra'Anana, Israel</FullAddress>
    <Latitude>32.1918</Latitude>
    <Longitude>34.681</Longitude>
    <Role>VOLUNTEER</Role>
    <Active>true</Active>
    <MaxDistance>170</MaxDistance>
    <TypeOfDistance>AERIALDISTANCE</TypeOfDistance>
  </Volunteer>
  <Volunteer>
    <Id>341660174</Id>
    <FullName>Victoria Allen</FullName>
    <Phone>058-1098765</Phone>
    <Email>victoria.allen@example.com</Email>
    <Password>strong2024pass</Password>
    <FullAddress>HaYam 7, Tiberias</FullAddress>
    <Latitude>32.794</Latitude>
    <Longitude>35.532</Longitude>
    <Role>VOLUNTEER</Role>
    <Active>true</Active>
    <MaxDistance>3034</MaxDistance>
    <TypeOfDistance>AERIALDISTANCE</TypeOfDistance>
  </Volunteer>
  <Volunteer>
    <Id>311475698</Id>
    <FullName>James White</FullName>
    <Phone>059-0987654</Phone>
    <Email>james.white@example.com</Email>
    <Password>ilovechatgpt123</Password>
    <FullAddress>HaZionut 3, Kiryat Shmona</FullAddress>
    <Latitude>33.204</Latitude>
    <Longitude>35.57</Longitude>
    <Role>VOLUNTEER</Role>
    <Active>true</Active>
    <MaxDistance>2594</MaxDistance>
    <TypeOfDistance>AERIALDISTANCE</TypeOfDistance>
  </Volunteer>
  <Volunteer>
    <Id>244831265</Id>
    <FullName>Natalie Scott</FullName>
    <Phone>054-0988684</Phone>
    <Email>natalie.scott@example.com</Email>
    <Password>admin1password</Password>
    <FullAddress>HaHistadrut 80, Kiryat Gat</FullAddress>
    <Latitude>31.608</Latitude>
    <Longitude>34.76</Longitude>
    <Role>VOLUNTEER</Role>
    <Active>false</Active>
    <MaxDistance>6643</MaxDistance>
    <TypeOfDistance>AERIALDISTANCE</TypeOfDistance>
  </Volunteer>
  <Volunteer>
    <Id>237351310</Id>
    <FullName>Evan Phillips</FullName>
    <Phone>052-9989654</Phone>
    <Email>evan.phillips@example.com</Email>
    <Password>testpass1234</Password>
    <FullAddress>HaDekel 8, Netivot</FullAddress>
    <Latitude>31.422</Latitude>
    <Longitude>34.618</Longitude>
    <Role>VOLUNTEER</Role>
    <Active>true</Active>
    <MaxDistance>9737</MaxDistance>
    <TypeOfDistance>AERIALDISTANCE</TypeOfDistance>
  </Volunteer>
  <Volunteer>
    <Id>399827881</Id>
    <FullName>John Doe</FullName>
    <Phone>052-1234567</Phone>
    <Email>john.doe@example.com</Email>
    <Password>password123</Password>
    <FullAddress>Rothschild Boulevard, Tel Aviv</FullAddress>
    <Latitude>32.0688</Latitude>
    <Longitude>34.7818</Longitude>
    <Role>ADMIN</Role>
    <Active>true</Active>
    <MaxDistance>25.264243156784907</MaxDistance>
    <TypeOfDistance>AERIALDISTANCE</TypeOfDistance>
  </Volunteer>
  <Volunteer>
    <Id>397069361</Id>
    <FullName>Jane Smith</FullName>
    <Phone>053-2345678</Phone>
    <Email>jane.smith@example.com</Email>
    <Password>abc123</Password>
    <FullAddress>King George St, Tel Aviv-Yafo, Israel</FullAddress>
    <Latitude>32.0667</Latitude>
    <Longitude>34.773</Longitude>
    <Role>VOLUNTEER</Role>
    <Active>true</Active>
    <MaxDistance>20.147365999350903</MaxDistance>
    <TypeOfDistance>AERIALDISTANCE</TypeOfDistance>
  </Volunteer>
  <Volunteer>
    <Id>308452577</Id>
    <FullName>Michael Johnson</FullName>
    <Phone>054-3456789</Phone>
    <Email>michael.johnson@example.com</Email>
    <Password>qwerty123</Password>
    <FullAddress>Herzl St, Tel Aviv-Jaffa</FullAddress>
    <Latitude>32.0615</Latitude>
    <Longitude>34.7715</Longitude>
    <Role>VOLUNTEER</Role>
    <Active>true</Active>
    <MaxDistance>31.661770196503173</MaxDistance>
    <TypeOfDistance>AERIALDISTANCE</TypeOfDistance>
  </Volunteer>
  <Volunteer>
    <Id>277296399</Id>
    <FullName>Emily Davis</FullName>
    <Phone>055-4567890</Phone>
    <Email>emily.davis@example.com</Email>
    <Password>letmein2024</Password>
    <FullAddress>Dizengoff St, Tel Aviv-Yafo, Israel</FullAddress>
    <Latitude>32.0853</Latitude>
    <Longitude>34.7758</Longitude>
    <Role>VOLUNTEER</Role>
    <Active>true</Active>
    <MaxDistance>37.9343912520237</MaxDistance>
    <TypeOfDistance>AERIALDISTANCE</TypeOfDistance>
  </Volunteer>
  <Volunteer>
    <Id>258722090</Id>
    <FullName>Chris Brown</FullName>
    <Phone>056-5678901</Phone>
    <Email>chris.brown@example.com</Email>
    <Password>welcome1</Password>
    <FullAddress>Allenby St, Tel Aviv-Yafo, Israel</FullAddress>
    <Latitude>32.0733</Latitude>
    <Longitude>34.7695</Longitude>
    <Role>VOLUNTEER</Role>
    <Active>true</Active>
    <MaxDistance>18.965383236027858</MaxDistance>
    <TypeOfDistance>AERIALDISTANCE</TypeOfDistance>
  </Volunteer>
  <Volunteer>
    <Id>327385344</Id>
    <FullName>Jessica Taylor</FullName>
    <Phone>057-6789012</Phone>
    <Email>jessica.taylor@example.com</Email>
    <Password>1234abcd</Password>
    <FullAddress>Shaul Hamelekh, Tel Aviv, Israel</FullAddress>
    <Latitude>32.0551</Latitude>
    <Longitude>34.788</Longitude>
    <Role>VOLUNTEER</Role>
    <Active>true</Active>
    <MaxDistance>15.216687485126778</MaxDistance>
    <TypeOfDistance>AERIALDISTANCE</TypeOfDistance>
  </Volunteer>
  <Volunteer>
    <Id>243197466</Id>
    <FullName>David Wilson</FullName>
    <Phone>058-7890123</Phone>
    <Email>david.wilson@example.com</Email>
    <Password>iloveyou99</Password>
    <FullAddress>Hayarkon St, Tel Aviv-Yafo, Israel</FullAddress>
    <Latitude>32.085</Latitude>
    <Longitude>34.7712</Longitude>
    <Role>VOLUNTEER</Role>
    <Active>true</Active>
    <MaxDistance>38.82737918839971</MaxDistance>
    <TypeOfDistance>AERIALDISTANCE</TypeOfDistance>
  </Volunteer>
  <Volunteer>
    <Id>209949317</Id>
    <FullName>Sophia Moore</FullName>
    <Phone>059-8901234</Phone>
    <Email>sophia.moore@example.com</Email>
    <Password>admin123</Password>
    <FullAddress>Yafo, Jerusalem, Israel</FullAddress>
    <Latitude>31.7683</Latitude>
    <Longitude>35.2137</Longitude>
    <Role>VOLUNTEER</Role>
    <Active>true</Active>
    <MaxDistance>28.465898326067656</MaxDistance>
    <TypeOfDistance>AERIALDISTANCE</TypeOfDistance>
  </Volunteer>
  <Volunteer>
    <Id>263150180</Id>
    <FullName>Daniel Anderson</FullName>
    <Phone>050-9876543</Phone>
    <Email>daniel.anderson@example.com</Email>
    <Password>secretpass</Password>
    <FullAddress>King David St, Jerusalem, Israel</FullAddress>
    <Latitude>31.7774</Latitude>
    <Longitude>35.2217</Longitude>
    <Role>VOLUNTEER</Role>
    <Active>true</Active>
    <MaxDistance>37.00196917387436</MaxDistance>
    <TypeOfDistance>AERIALDISTANCE</TypeOfDistance>
  </Volunteer>
  <Volunteer>
    <Id>353857594</Id>
    <FullName>Olivia Lee</FullName>
    <Phone>051-8765432</Phone>
    <Email>olivia.lee@example.com</Email>
    <Password>letmein22</Password>
    <FullAddress>Emek Refaim, Jerusalem, Israel</FullAddress>
    <Latitude>31.7554</Latitude>
    <Longitude>35.2281</Longitude>
    <Role>VOLUNTEER</Role>
    <Active>true</Active>
    <MaxDistance>28.752070992586134</MaxDistance>
    <TypeOfDistance>AERIALDISTANCE</TypeOfDistance>
  </Volunteer>
  <Volunteer>
    <Id>284064744</Id>
    <FullName>Matthew Harris</FullName>
    <Phone>052-7654321</Phone>
    <Email>matthew.harris@example.com</Email>
    <Password>secure2023</Password>
    <FullAddress>Weizman St, Ra'Anana, Israel</FullAddress>
    <Latitude>32.1913</Latitude>
    <Longitude>34.8866</Longitude>
    <Role>VOLUNTEER</Role>
    <Active>true</Active>
    <MaxDistance>36.1698775625991</MaxDistance>
    <TypeOfDistance>AERIALDISTANCE</TypeOfDistance>
  </Volunteer>
  <Volunteer>
    <Id>318790406</Id>
    <FullName>Lily Clark</FullName>
    <Phone>053-6543210</Phone>
    <Email>lily.clark@example.com</Email>
    <Password>testpass1</Password>
    <FullAddress>Ezer Weizman St, Hod Hasharon, Israel</FullAddress>
    <Latitude>32.1654</Latitude>
    <Longitude>34.9032</Longitude>
    <Role>VOLUNTEER</Role>
    <Active>true</Active>
    <MaxDistance>28.16315140943225</MaxDistance>
    <TypeOfDistance>AERIALDISTANCE</TypeOfDistance>
  </Volunteer>
  <Volunteer>
    <Id>325910226</Id>
    <FullName>James Walker</FullName>
    <Phone>054-5432109</Phone>
    <Email>james.walker@example.com</Email>
    <Password>password2024</Password>
    <FullAddress>Sderot Ben Gurion, Haifa, Israel</FullAddress>
    <Latitude>32.794</Latitude>
    <Longitude>34.9896</Longitude>
    <Role>VOLUNTEER</Role>
    <Active>true</Active>
    <MaxDistance>30.95664412616259</MaxDistance>
    <TypeOfDistance>AERIALDISTANCE</TypeOfDistance>
  </Volunteer>
  <Volunteer>
    <Id>302441231</Id>
    <FullName>Chloe Hall</FullName>
    <Phone>055-4321098</Phone>
    <Email>chloe.hall@example.com</Email>
    <Password>mysecret123</Password>
    <FullAddress>Herzl St, Haifa, Israel</FullAddress>
    <Latitude>32.7946</Latitude>
    <Longitude>34.9858</Longitude>
    <Role>VOLUNTEER</Role>
    <Active>true</Active>
    <MaxDistance>30.527476909872362</MaxDistance>
    <TypeOfDistance>AERIALDISTANCE</TypeOfDistance>
  </Volunteer>
  <Volunteer>
    <Id>277271812</Id>
    <FullName>Benjamin Young</FullName>
    <Phone>056-3210987</Phone>
    <Email>benjamin.young@example.com</Email>
    <Password>access123</Password>
    <FullAddress>Hanassi Blvd, Haifa, Israel</FullAddress>
    <Latitude>32.8054</Latitude>
    <Longitude>34.9956</Longitude>
    <Role>VOLUNTEER</Role>
    <Active>true</Active>
    <MaxDistance>24.494539061210098</MaxDistance>
    <TypeOfDistance>AERIALDISTANCE</TypeOfDistance>
  </Volunteer>
  <Volunteer>
    <Id>397152582</Id>
    <FullName>Mia Scott</FullName>
    <Phone>057-2109876</Phone>
    <Email>mia.scott@example.com</Email>
    <Password>12345qwerty</Password>
    <FullAddress>Yerushalayim St, Haifa, Israel</FullAddress>
    <Latitude>32.809</Latitude>
    <Longitude>35.0073</Longitude>
    <Role>VOLUNTEER</Role>
    <Active>true</Active>
    <MaxDistance>17.215050999285015</MaxDistance>
    <TypeOfDistance>AERIALDISTANCE</TypeOfDistance>
  </Volunteer>
  <Volunteer>
    <Id>261732678</Id>
    <FullName>Ethan Adams</FullName>
    <Phone>058-1098765</Phone>
    <Email>ethan.adams@example.com</Email>
    <Password>iloveme</Password>
    <FullAddress>Ma'Abarot, Haifa, Israel</FullAddress>
    <Latitude>32.8223</Latitude>
    <Longitude>34.9939</Longitude>
    <Role>VOLUNTEER</Role>
    <Active>true</Active>
    <MaxDistance>25.07431463741714</MaxDistance>
    <TypeOfDistance>AERIALDISTANCE</TypeOfDistance>
  </Volunteer>
  <Volunteer>
    <Id>372251672</Id>
    <FullName>Isabella King</FullName>
    <Phone>059-0987654</Phone>
    <Email>isabella.king@example.com</Email>
    <Password>mypassword01</Password>
    <FullAddress>Herzl, Netanya, Israel</FullAddress>
    <Latitude>32.337</Latitude>
    <Longitude>34.867</Longitude>
    <Role>VOLUNTEER</Role>
    <Active>true</Active>
    <MaxDistance>24.4931148365374</MaxDistance>
    <TypeOfDistance>AERIALDISTANCE</TypeOfDistance>
  </Volunteer>
  <Volunteer>
    <Id>335631845</Id>
    <FullName>Aiden Martinez</FullName>
    <Phone>050-9876543</Phone>
    <Email>aiden.martinez@example.com</Email>
    <Password>adminpassword</Password>
    <FullAddress>Hadegel St, Tel Aviv-Yafo, Israel</FullAddress>
    <Latitude>32.0794</Latitude>
    <Longitude>34.8116</Longitude>
    <Role>VOLUNTEER</Role>
    <Active>true</Active>
    <MaxDistance>36.80900171999611</MaxDistance>
    <TypeOfDistance>AERIALDISTANCE</TypeOfDistance>
  </Volunteer>
  <Volunteer>
    <Id>202748315</Id>
    <FullName>Charlotte Lee</FullName>
    <Phone>051-8765432</Phone>
    <Email>charlotte.lee@example.com</Email>
    <Password>password!23</Password>
    <FullAddress>Ha'Atsmaut Blvd, Bat Yam, Israel</FullAddress>
    <Latitude>32.0224</Latitude>
    <Longitude>34.8125</Longitude>
    <Role>VOLUNTEER</Role>
    <Active>true</Active>
    <MaxDistance>17.34796118783714</MaxDistance>
    <TypeOfDistance>AERIALDISTANCE</TypeOfDistance>
  </Volunteer>
  <Volunteer>
    <Id>291547935</Id>
    <FullName>Lucas Perez</FullName>
    <Phone>052-7654321</Phone>
    <Email>lucas.perez@example.com</Email>
    <Password>123qwerty</Password>
    <FullAddress>Ha-Rav Nisanbaum St, Bat Yam, Israel</FullAddress>
    <Latitude>32.033</Latitude>
    <Longitude>34.6435</Longitude>
    <Role>VOLUNTEER</Role>
    <Active>true</Active>
    <MaxDistance>36.54900553634046</MaxDistance>
    <TypeOfDistance>AERIALDISTANCE</TypeOfDistance>
  </Volunteer>
  <Volunteer>
    <Id>296145635</Id>
    <FullName>Amelia Rodriguez</FullName>
    <Phone>053-6543210</Phone>
    <Email>amelia.rodriguez@example.com</Email>
    <Password>letmein2023</Password>
    <FullAddress>Hanamal, Ashdod, Israel</FullAddress>
    <Latitude>31.8011</Latitude>
    <Longitude>34.6487</Longitude>
    <Role>VOLUNTEER</Role>
    <Active>true</Active>
    <MaxDistance>14.870262936724977</MaxDistance>
    <TypeOfDistance>AERIALDISTANCE</TypeOfDistance>
  </Volunteer>
  <Volunteer>
    <Id>203405947</Id>
    <FullName>Henry Green</FullName>
    <Phone>054-5432109</Phone>
    <Email>henry.green@example.com</Email>
    <Password>strongpass22</Password>
    <FullAddress>Sderot Menachem Begin, Ashdod, Israel</FullAddress>
    <Latitude>31.801</Latitude>
    <Longitude>34.6491</Longitude>
    <Role>VOLUNTEER</Role>
    <Active>true</Active>
    <MaxDistance>33.0580138310239</MaxDistance>
    <TypeOfDistance>AERIALDISTANCE</TypeOfDistance>
  </Volunteer>
  <Volunteer>
    <Id>217389063</Id>
    <FullName>Aria Hall</FullName>
    <Phone>055-4321098</Phone>
    <Email>aria.hall@example.com</Email>
    <Password>qwertz123</Password>
    <FullAddress>Moshe Dayan Avenue, Ashdod, Israel</FullAddress>
    <Latitude>31.803</Latitude>
    <Longitude>34.5717</Longitude>
    <Role>VOLUNTEER</Role>
    <Active>true</Active>
    <MaxDistance>11.766875537069044</MaxDistance>
    <TypeOfDistance>AERIALDISTANCE</TypeOfDistance>
  </Volunteer>
  <Volunteer>
    <Id>335052448</Id>
    <FullName>Samuel Harris</FullName>
    <Phone>056-3210987</Phone>
    <Email>samuel.harris@example.com</Email>
    <Password>abcpassword</Password>
    <FullAddress>David Ben Gurion Avenue, Ashkelon, Israel</FullAddress>
    <Latitude>31.6672</Latitude>
    <Longitude>34.5732</Longitude>
    <Role>VOLUNTEER</Role>
    <Active>true</Active>
    <MaxDistance>35.64462251274878</MaxDistance>
    <TypeOfDistance>AERIALDISTANCE</TypeOfDistance>
  </Volunteer>
  <Volunteer>
    <Id>278318183</Id>
    <FullName>Ella Carter</FullName>
    <Phone>057-2109876</Phone>
    <Email>ella.carter@example.com</Email>
    <Password>mypassword@2024</Password>
    <FullAddress>Arye Tagar St, Ashkelon, Israel</FullAddress>
    <Latitude>31.6685</Latitude>
    <Longitude>34.9162</Longitude>
    <Role>VOLUNTEER</Role>
    <Active>true</Active>
    <MaxDistance>27.631510398976328</MaxDistance>
    <TypeOfDistance>AERIALDISTANCE</TypeOfDistance>
  </Volunteer>
  <Volunteer>
    <Id>244670329</Id>
    <FullName>David Walker</FullName>
    <Phone>058-1098765</Phone>
    <Email>david.walker@example.com</Email>
    <Password>passw0rd123</Password>
    <FullAddress>Sderot Rothschild, Hadera, Israel</FullAddress>
    <Latitude>32.4332</Latitude>
    <Longitude>34.922</Longitude>
    <Role>VOLUNTEER</Role>
    <Active>true</Active>
    <MaxDistance>25.326778963302864</MaxDistance>
    <TypeOfDistance>AERIALDISTANCE</TypeOfDistance>
  </Volunteer>
  <Volunteer>
    <Id>340650109</Id>
    <FullName>Avery Thompson</FullName>
    <Phone>059-0987654</Phone>
    <Email>avery.thompson@example.com</Email>
    <Password>iloveyou1234</Password>
    <FullAddress>Hasela St, Atlit, Israel</FullAddress>
    <Latitude>32.6374</Latitude>
    <Longitude>34.8944</Longitude>
    <Role>VOLUNTEER</Role>
    <Active>true</Active>
    <MaxDistance>36.057356113358495</MaxDistance>
    <TypeOfDistance>AERIALDISTANCE</TypeOfDistance>
  </Volunteer>
  <Volunteer>
    <Id>314304327</Id>
    <FullName>Oliver Collins</FullName>
    <Phone>050-9876543</Phone>
    <Email>oliver.collins@example.com</Email>
    <Password>testpassword12</Password>
    <FullAddress>Herzl St, Lod, Israel</FullAddress>
    <Latitude>31.9515</Latitude>
    <Longitude>34.8961</Longitude>
    <Role>VOLUNTEER</Role>
    <Active>true</Active>
    <MaxDistance>28.94704061794816</MaxDistance>
    <TypeOfDistance>AERIALDISTANCE</TypeOfDistance>
  </Volunteer>
  <Volunteer>
    <Id>382831265</Id>
    <FullName>Sophie White</FullName>
    <Phone>051-8765432</Phone>
    <Email>sophie.white@example.com</Email>
    <Password>openai123</Password>
    <FullAddress>Dani Mass St, Lod, Israel</FullAddress>
    <Latitude>31.9511</Latitude>
    <Longitude>34.87</Longitude>
    <Role>VOLUNTEER</Role>
    <Active>true</Active>
    <MaxDistance>33.2792714568636</MaxDistance>
    <TypeOfDistance>AERIALDISTANCE</TypeOfDistance>
  </Volunteer>
  <Volunteer>
    <Id>265482787</Id>
    <FullName>William Wright</FullName>
    <Phone>052-7654321</Phone>
    <Email>william.wright@example.com</Email>
    <Password>adminsecure</Password>
    <FullAddress>David Remez St, Or Yehuda, Israel</FullAddress>
    <Latitude>31.9615</Latitude>
    <Longitude>34.839</Longitude>
    <Role>VOLUNTEER</Role>
    <Active>true</Active>
    <MaxDistance>23.19669291989967</MaxDistance>
    <TypeOfDistance>AERIALDISTANCE</TypeOfDistance>
  </Volunteer>
  <Volunteer>
    <Id>391325068</Id>
    <FullName>Megan Nelson</FullName>
    <Phone>053-6543210</Phone>
    <Email>megan.nelson@example.com</Email>
    <Password>securepassword01</Password>
    <FullAddress>Hagdud Haivri St, Ra'anana, Israel</FullAddress>
    <Latitude>32.185</Latitude>
    <Longitude>34.8462</Longitude>
    <Role>VOLUNTEER</Role>
    <Active>true</Active>
    <MaxDistance>16.31844169443596</MaxDistance>
    <TypeOfDistance>AERIALDISTANCE</TypeOfDistance>
  </Volunteer>
  <Volunteer>
    <Id>211664251</Id>
    <FullName>Jack Brown</FullName>
    <Phone>054-5432109</Phone>
    <Email>jack.brown@example.com</Email>
    <Password>bestpassword!</Password>
    <FullAddress>Haahot Haya Oster St Ramat Gan, Ramat Gan, Israel</FullAddress>
    <Latitude>32.0685</Latitude>
    <Longitude>34.8408</Longitude>
    <Role>VOLUNTEER</Role>
    <Active>true</Active>
    <MaxDistance>32.70629012083858</MaxDistance>
    <TypeOfDistance>AERIALDISTANCE</TypeOfDistance>
  </Volunteer>
  <Volunteer>
    <Id>212298814</Id>
    <FullName>Madison Roberts</FullName>
    <Phone>055-4321098</Phone>
    <Email>madison.roberts@example.com</Email>
    <Password>chatrocks</Password>
    <FullAddress>Ahuza St, Ra'Anana, Israel</FullAddress>
    <Latitude>32.183</Latitude>
    <Longitude>34.8522</Longitude>
    <Role>VOLUNTEER</Role>
    <Active>true</Active>
    <MaxDistance>31.189607194112792</MaxDistance>
    <TypeOfDistance>AERIALDISTANCE</TypeOfDistance>
  </Volunteer>
  <Volunteer>
    <Id>270960401</Id>
    <FullName>Jacob Carter</FullName>
    <Phone>056-3210987</Phone>
    <Email>jacob.carter@example.com</Email>
    <Password>strongpass1</Password>
    <FullAddress>Keren Hayesod St, Ra'Anana, Israel</FullAddress>
    <Latitude>32.1797</Latitude>
    <Longitude>34.8555</Longitude>
    <Role>VOLUNTEER</Role>
    <Active>true</Active>
    <MaxDistance>12.328117166029502</MaxDistance>
    <TypeOfDistance>AERIALDISTANCE</TypeOfDistance>
  </Volunteer>
  <Volunteer>
    <Id>275255546</Id>
    <FullName>Sophia Brooks</FullName>
    <Phone>057-2109876</Phone>
    <Email>sophia.brooks@example.com</Email>
    <Password>newpassword2024</Password>
    <FullAddress>Derech Jaffa, Tel Aviv-Yafo, Israel</FullAddress>
    <Latitude>32.0628</Latitude>
    <Longitude>34.8689</Longitude>
    <Role>VOLUNTEER</Role>
    <Active>true</Active>
    <MaxDistance>30.951575422665684</MaxDistance>
    <TypeOfDistance>AERIALDISTANCE</TypeOfDistance>
  </Volunteer>
  <Volunteer>
    <Id>393513229</Id>
    <FullName>Jackson Scott</FullName>
    <Phone>058-1098765</Phone>
    <Email>jackson.scott@example.com</Email>
    <Password>password01@</Password>
    <FullAddress>Menachem Begin, Petaẖ Tiqwa, Israel</FullAddress>
    <Latitude>32.091</Latitude>
    <Longitude>34.8803</Longitude>
    <Role>VOLUNTEER</Role>
    <Active>true</Active>
    <MaxDistance>22.043763563405083</MaxDistance>
    <TypeOfDistance>AERIALDISTANCE</TypeOfDistance>
  </Volunteer>
  <Volunteer>
    <Id>279547490</Id>
    <FullName>Grace Turner</FullName>
    <Phone>059-0987654</Phone>
    <Email>grace.turner@example.com</Email>
    <Password>welcome@123</Password>
    <FullAddress>Hamalbim, Jerusalem, Israel</FullAddress>
    <Latitude>31.7712</Latitude>
    <Longitude>34.9445</Longitude>
    <Role>VOLUNTEER</Role>
    <Active>true</Active>
    <MaxDistance>11.241598357310224</MaxDistance>
    <TypeOfDistance>AERIALDISTANCE</TypeOfDistance>
  </Volunteer>
  <Volunteer>
    <Id>294787940</Id>
    <FullName>Mason Miller</FullName>
    <Phone>050-9876543</Phone>
    <Email>mason.miller@example.com</Email>
    <Password>1234password</Password>
    <FullAddress>Em Hamoshavot Rd, Petah Tikva, Israel</FullAddress>
    <Latitude>32.0955</Latitude>
    <Longitude>34.8324</Longitude>
    <Role>VOLUNTEER</Role>
    <Active>true</Active>
    <MaxDistance>35.88457174186805</MaxDistance>
    <TypeOfDistance>AERIALDISTANCE</TypeOfDistance>
  </Volunteer>
  <Volunteer>
    <Id>298873023</Id>
    <FullName>Liam King</FullName>
    <Phone>051-8765432</Phone>
    <Email>liam.king@example.com</Email>
    <Password>secret1234</Password>
    <FullAddress>Weizmann St, Kfar Saba, Israel</FullAddress>
    <Latitude>32.1665</Latitude>
    <Longitude>34.842</Longitude>
    <Role>VOLUNTEER</Role>
    <Active>true</Active>
    <MaxDistance>34.97099973834406</MaxDistance>
    <TypeOfDistance>AERIALDISTANCE</TypeOfDistance>
  </Volunteer>
  <Volunteer>
    <Id>399227439</Id>
    <FullName>Charlotte Walker</FullName>
    <Phone>052-7654321</Phone>
    <Email>charlotte.walker@example.com</Email>
    <Password>tbot2023</Password>
    <FullAddress>Ha-Palmakh St, Ra'Anana, Israel</FullAddress>
    <Latitude>32.1915</Latitude>
    <Longitude>34.8402</Longitude>
    <Role>VOLUNTEER</Role>
    <Active>true</Active>
    <MaxDistance>18.307787459628887</MaxDistance>
    <TypeOfDistance>AERIALDISTANCE</TypeOfDistance>
  </Volunteer>
  <Volunteer>
    <Id>267551386</Id>
    <FullName>Daniel Evans</FullName>
    <Phone>053-6543210</Phone>
    <Email>daniel.evans@example.com</Email>
    <Password>securechatgpt</Password>
    <FullAddress>Haenergia St, Be'Er Sheva, Israel</FullAddress>
    <Latitude>31.252</Latitude>
    <Longitude>34.8425</Longitude>
    <Role>VOLUNTEER</Role>
    <Active>true</Active>
    <MaxDistance>16.056559523229655</MaxDistance>
    <TypeOfDistance>AERIALDISTANCE</TypeOfDistance>
  </Volunteer>
  <Volunteer>
    <Id>333404809</Id>
    <FullName>Ella Green</FullName>
    <Phone>054-5432109</Phone>
    <Email>ella.green@example.com</Email>
    <Password>pass1234</Password>
    <FullAddress>Ha-Palmakh St, Be'Er Sheva, Israel</FullAddress>
    <Latitude>31.2571</Latitude>
    <Longitude>35.5318</Longitude>
    <Role>VOLUNTEER</Role>
    <Active>true</Active>
    <MaxDistance>18.848246735330758</MaxDistance>
    <TypeOfDistance>AERIALDISTANCE</TypeOfDistance>
  </Volunteer>
  <Volunteer>
    <Id>293766064</Id>
    <FullName>Oliver Evans</FullName>
    <Phone>055-4321098</Phone>
    <Email>oliver.evans@example.com</Email>
    <Password>qwertz!234</Password>
    <FullAddress>Harav Kook St, Hertsliya, Israel</FullAddress>
    <Latitude>32.1653</Latitude>
    <Longitude>35.5779</Longitude>
    <Role>VOLUNTEER</Role>
    <Active>true</Active>
    <MaxDistance>31.134490270325355</MaxDistance>
    <TypeOfDistance>AERIALDISTANCE</TypeOfDistance>
  </Volunteer>
  <Volunteer>
    <Id>251651853</Id>
    <FullName>Harper Lewis</FullName>
    <Phone>056-3210987</Phone>
    <Email>harper.lewis@example.com</Email>
    <Password>supersecurepass</Password>
    <FullAddress>Yehuda Halevi St, Hertsliya, Israel</FullAddress>
    <Latitude>32.1668</Latitude>
    <Longitude>34.7918</Longitude>
    <Role>VOLUNTEER</Role>
    <Active>true</Active>
    <MaxDistance>32.50633566548636</MaxDistance>
    <TypeOfDistance>AERIALDISTANCE</TypeOfDistance>
  </Volunteer>
  <Volunteer>
    <Id>232245878</Id>
    <FullName>Benjamin Lee</FullName>
    <Phone>057-2109876</Phone>
    <Email>benjamin.lee@example.com</Email>
    <Password>access1234</Password>
    <FullAddress>Ha-Galil St, Ra'Anana, Israel</FullAddress>
    <Latitude>32.1918</Latitude>
    <Longitude>34.681</Longitude>
    <Role>VOLUNTEER</Role>
    <Active>true</Active>
    <MaxDistance>13.082375666189069</MaxDistance>
    <TypeOfDistance>AERIALDISTANCE</TypeOfDistance>
  </Volunteer>
  <Volunteer>
    <Id>289757970</Id>
    <FullName>Victoria Allen</FullName>
    <Phone>058-1098765</Phone>
    <Email>victoria.allen@example.com</Email>
    <Password>strong2024pass</Password>
    <FullAddress>Hayam, Tiberias, Israel</FullAddress>
    <Latitude>32.7921</Latitude>
    <Longitude>35.5318</Longitude>
    <Role>VOLUNTEER</Role>
    <Active>true</Active>
    <MaxDistance>18.202509136276433</MaxDistance>
    <TypeOfDistance>AERIALDISTANCE</TypeOfDistance>
  </Volunteer>
  <Volunteer>
    <Id>378653912</Id>
    <FullName>James White</FullName>
    <Phone>059-0987654</Phone>
    <Email>james.white@example.com</Email>
    <Password>ilovechatgpt123</Password>
    <FullAddress>Tel Hai St, Qiryat Shemona, Israel</FullAddress>
    <Latitude>33.2851</Latitude>
    <Longitude>35.5779</Longitude>
    <Role>VOLUNTEER</Role>
    <Active>true</Active>
    <MaxDistance>27.33291162109959</MaxDistance>
    <TypeOfDistance>AERIALDISTANCE</TypeOfDistance>
  </Volunteer>
  <Volunteer>
    <Id>295546512</Id>
    <FullName>Natalie Scott</FullName>
    <Phone>054-0988684</Phone>
    <Email>natalie.scott@example.com</Email>
    <Password>admin1password</Password>
    <FullAddress>Sderot Haatsma'Ut, Kiryat Gat, Israel</FullAddress>
    <Latitude>31.612</Latitude>
    <Longitude>34.7918</Longitude>
    <Role>VOLUNTEER</Role>
    <Active>true</Active>
    <MaxDistance>15.789679944040593</MaxDistance>
    <TypeOfDistance>AERIALDISTANCE</TypeOfDistance>
  </Volunteer>
  <Volunteer>
    <Id>316290461</Id>
    <FullName>Evan Phillips</FullName>
    <Phone>052-9989654</Phone>
    <Email>evan.phillips@example.com</Email>
    <Password>testpass1234</Password>
    <FullAddress>HaDekel, Netivot, Israel</FullAddress>
    <Latitude>31.401</Latitude>
    <Longitude>34.681</Longitude>
    <Role>VOLUNTEER</Role>
    <Active>true</Active>
    <MaxDistance>23.44702452542367</MaxDistance>
    <TypeOfDistance>AERIALDISTANCE</TypeOfDistance>
  </Volunteer>
  <Volunteer>
    <Id>209049552</Id>
    <FullName>John Doe</FullName>
    <Phone>052-1234567</Phone>
    <Email>john.doe@example.com</Email>
    <Password>password123</Password>
    <FullAddress>Rothschild Boulevard, Tel Aviv</FullAddress>
    <Latitude>32.0688</Latitude>
    <Longitude>34.7818</Longitude>
    <Role>ADMIN</Role>
    <Active>true</Active>
    <MaxDistance>20.681661347845875</MaxDistance>
    <TypeOfDistance>AERIALDISTANCE</TypeOfDistance>
  </Volunteer>
  <Volunteer>
    <Id>229995734</Id>
    <FullName>Jane Smith</FullName>
    <Phone>053-2345678</Phone>
    <Email>jane.smith@example.com</Email>
    <Password>abc123</Password>
    <FullAddress>King George St, Tel Aviv-Yafo, Israel</FullAddress>
    <Latitude>32.0667</Latitude>
    <Longitude>34.773</Longitude>
    <Role>VOLUNTEER</Role>
    <Active>true</Active>
    <MaxDistance>23.791044447213416</MaxDistance>
    <TypeOfDistance>AERIALDISTANCE</TypeOfDistance>
  </Volunteer>
  <Volunteer>
    <Id>220079803</Id>
    <FullName>Michael Johnson</FullName>
    <Phone>054-3456789</Phone>
    <Email>michael.johnson@example.com</Email>
    <Password>qwerty123</Password>
    <FullAddress>Herzl St, Tel Aviv-Jaffa</FullAddress>
    <Latitude>32.0615</Latitude>
    <Longitude>34.7715</Longitude>
    <Role>VOLUNTEER</Role>
    <Active>true</Active>
    <MaxDistance>23.115057470208065</MaxDistance>
    <TypeOfDistance>AERIALDISTANCE</TypeOfDistance>
  </Volunteer>
  <Volunteer>
    <Id>200515015</Id>
    <FullName>Emily Davis</FullName>
    <Phone>055-4567890</Phone>
    <Email>emily.davis@example.com</Email>
    <Password>letmein2024</Password>
    <FullAddress>Dizengoff St, Tel Aviv-Yafo, Israel</FullAddress>
    <Latitude>32.0853</Latitude>
    <Longitude>34.7758</Longitude>
    <Role>VOLUNTEER</Role>
    <Active>true</Active>
    <MaxDistance>32.781315051317605</MaxDistance>
    <TypeOfDistance>AERIALDISTANCE</TypeOfDistance>
  </Volunteer>
  <Volunteer>
    <Id>259995136</Id>
    <FullName>Chris Brown</FullName>
    <Phone>056-5678901</Phone>
    <Email>chris.brown@example.com</Email>
    <Password>welcome1</Password>
    <FullAddress>Allenby St, Tel Aviv-Yafo, Israel</FullAddress>
    <Latitude>32.0733</Latitude>
    <Longitude>34.7695</Longitude>
    <Role>VOLUNTEER</Role>
    <Active>true</Active>
    <MaxDistance>37.09635863906938</MaxDistance>
    <TypeOfDistance>AERIALDISTANCE</TypeOfDistance>
  </Volunteer>
  <Volunteer>
    <Id>389975859</Id>
    <FullName>Jessica Taylor</FullName>
    <Phone>057-6789012</Phone>
    <Email>jessica.taylor@example.com</Email>
    <Password>1234abcd</Password>
    <FullAddress>Shaul Hamelekh, Tel Aviv, Israel</FullAddress>
    <Latitude>32.0551</Latitude>
    <Longitude>34.788</Longitude>
    <Role>VOLUNTEER</Role>
    <Active>true</Active>
    <MaxDistance>15.304329866498456</MaxDistance>
    <TypeOfDistance>AERIALDISTANCE</TypeOfDistance>
  </Volunteer>
  <Volunteer>
    <Id>266714928</Id>
    <FullName>David Wilson</FullName>
    <Phone>058-7890123</Phone>
    <Email>david.wilson@example.com</Email>
    <Password>iloveyou99</Password>
    <FullAddress>Hayarkon St, Tel Aviv-Yafo, Israel</FullAddress>
    <Latitude>32.085</Latitude>
    <Longitude>34.7712</Longitude>
    <Role>VOLUNTEER</Role>
    <Active>true</Active>
    <MaxDistance>31.411872464292106</MaxDistance>
    <TypeOfDistance>AERIALDISTANCE</TypeOfDistance>
  </Volunteer>
  <Volunteer>
    <Id>235466609</Id>
    <FullName>Sophia Moore</FullName>
    <Phone>059-8901234</Phone>
    <Email>sophia.moore@example.com</Email>
    <Password>admin123</Password>
    <FullAddress>Yafo, Jerusalem, Israel</FullAddress>
    <Latitude>31.7683</Latitude>
    <Longitude>35.2137</Longitude>
    <Role>VOLUNTEER</Role>
    <Active>true</Active>
    <MaxDistance>20.97132768618124</MaxDistance>
    <TypeOfDistance>AERIALDISTANCE</TypeOfDistance>
  </Volunteer>
  <Volunteer>
    <Id>398236478</Id>
    <FullName>Daniel Anderson</FullName>
    <Phone>050-9876543</Phone>
    <Email>daniel.anderson@example.com</Email>
    <Password>secretpass</Password>
    <FullAddress>King David St, Jerusalem, Israel</FullAddress>
    <Latitude>31.7774</Latitude>
    <Longitude>35.2217</Longitude>
    <Role>VOLUNTEER</Role>
    <Active>true</Active>
    <MaxDistance>32.846603498553904</MaxDistance>
    <TypeOfDistance>AERIALDISTANCE</TypeOfDistance>
  </Volunteer>
  <Volunteer>
    <Id>261382554</Id>
    <FullName>Olivia Lee</FullName>
    <Phone>051-8765432</Phone>
    <Email>olivia.lee@example.com</Email>
    <Password>letmein22</Password>
    <FullAddress>Emek Refaim, Jerusalem, Israel</FullAddress>
    <Latitude>31.7554</Latitude>
    <Longitude>35.2281</Longitude>
    <Role>VOLUNTEER</Role>
    <Active>true</Active>
    <MaxDistance>26.27449300206368</MaxDistance>
    <TypeOfDistance>AERIALDISTANCE</TypeOfDistance>
  </Volunteer>
  <Volunteer>
    <Id>300575436</Id>
    <FullName>Matthew Harris</FullName>
    <Phone>052-7654321</Phone>
    <Email>matthew.harris@example.com</Email>
    <Password>secure2023</Password>
    <FullAddress>Weizman St, Ra'Anana, Israel</FullAddress>
    <Latitude>32.1913</Latitude>
    <Longitude>34.8866</Longitude>
    <Role>VOLUNTEER</Role>
    <Active>true</Active>
    <MaxDistance>31.943091902755537</MaxDistance>
    <TypeOfDistance>AERIALDISTANCE</TypeOfDistance>
  </Volunteer>
  <Volunteer>
    <Id>322645433</Id>
    <FullName>Lily Clark</FullName>
    <Phone>053-6543210</Phone>
    <Email>lily.clark@example.com</Email>
    <Password>testpass1</Password>
    <FullAddress>Ezer Weizman St, Hod Hasharon, Israel</FullAddress>
    <Latitude>32.1654</Latitude>
    <Longitude>34.9032</Longitude>
    <Role>VOLUNTEER</Role>
    <Active>true</Active>
    <MaxDistance>17.219291107549115</MaxDistance>
    <TypeOfDistance>AERIALDISTANCE</TypeOfDistance>
  </Volunteer>
  <Volunteer>
    <Id>237201572</Id>
    <FullName>James Walker</FullName>
    <Phone>054-5432109</Phone>
    <Email>james.walker@example.com</Email>
    <Password>password2024</Password>
    <FullAddress>Sderot Ben Gurion, Haifa, Israel</FullAddress>
    <Latitude>32.794</Latitude>
    <Longitude>34.9896</Longitude>
    <Role>VOLUNTEER</Role>
    <Active>true</Active>
    <MaxDistance>20.2496791292715</MaxDistance>
    <TypeOfDistance>AERIALDISTANCE</TypeOfDistance>
  </Volunteer>
  <Volunteer>
    <Id>283335801</Id>
    <FullName>Chloe Hall</FullName>
    <Phone>055-4321098</Phone>
    <Email>chloe.hall@example.com</Email>
    <Password>mysecret123</Password>
    <FullAddress>Herzl St, Haifa, Israel</FullAddress>
    <Latitude>32.7946</Latitude>
    <Longitude>34.9858</Longitude>
    <Role>VOLUNTEER</Role>
    <Active>true</Active>
    <MaxDistance>23.88935525691647</MaxDistance>
    <TypeOfDistance>AERIALDISTANCE</TypeOfDistance>
  </Volunteer>
  <Volunteer>
    <Id>298609174</Id>
    <FullName>Benjamin Young</FullName>
    <Phone>056-3210987</Phone>
    <Email>benjamin.young@example.com</Email>
    <Password>access123</Password>
    <FullAddress>Hanassi Blvd, Haifa, Israel</FullAddress>
    <Latitude>32.8054</Latitude>
    <Longitude>34.9956</Longitude>
    <Role>VOLUNTEER</Role>
    <Active>true</Active>
    <MaxDistance>30.98430115421549</MaxDistance>
    <TypeOfDistance>AERIALDISTANCE</TypeOfDistance>
  </Volunteer>
  <Volunteer>
    <Id>286529361</Id>
    <FullName>Mia Scott</FullName>
    <Phone>057-2109876</Phone>
    <Email>mia.scott@example.com</Email>
    <Password>12345qwerty</Password>
    <FullAddress>Yerushalayim St, Haifa, Israel</FullAddress>
    <Latitude>32.809</Latitude>
    <Longitude>35.0073</Longitude>
    <Role>VOLUNTEER</Role>
    <Active>true</Active>
    <MaxDistance>31.391071918950903</MaxDistance>
    <TypeOfDistance>AERIALDISTANCE</TypeOfDistance>
  </Volunteer>
  <Volunteer>
    <Id>273215728</Id>
    <FullName>Ethan Adams</FullName>
    <Phone>058-1098765</Phone>
    <Email>ethan.adams@example.com</Email>
    <Password>iloveme</Password>
    <FullAddress>Ma'Abarot, Haifa, Israel</FullAddress>
    <Latitude>32.8223</Latitude>
    <Longitude>34.9939</Longitude>
    <Role>VOLUNTEER</Role>
    <Active>true</Active>
    <MaxDistance>38.092184068396946</MaxDistance>
    <TypeOfDistance>AERIALDISTANCE</TypeOfDistance>
  </Volunteer>
  <Volunteer>
    <Id>277056440</Id>
    <FullName>Isabella King</FullName>
    <Phone>059-0987654</Phone>
    <Email>isabella.king@example.com</Email>
    <Password>mypassword01</Password>
    <FullAddress>Herzl, Netanya, Israel</FullAddress>
    <Latitude>32.337</Latitude>
    <Longitude>34.867</Longitude>
    <Role>VOLUNTEER</Role>
    <Active>true</Active>
    <MaxDistance>27.964565599912422</MaxDistance>
    <TypeOfDistance>AERIALDISTANCE</TypeOfDistance>
  </Volunteer>
  <Volunteer>
    <Id>338954399</Id>
    <FullName>Aiden Martinez</FullName>
    <Phone>050-9876543</Phone>
    <Email>aiden.martinez@example.com</Email>
    <Password>adminpassword</Password>
    <FullAddress>Hadegel St, Tel Aviv-Yafo, Israel</FullAddress>
    <Latitude>32.0794</Latitude>
    <Longitude>34.8116</Longitude>
    <Role>VOLUNTEER</Role>
    <Active>true</Active>
    <MaxDistance>38.89700788937442</MaxDistance>
    <TypeOfDistance>AERIALDISTANCE</TypeOfDistance>
  </Volunteer>
  <Volunteer>
    <Id>315370747</Id>
    <FullName>Charlotte Lee</FullName>
    <Phone>051-8765432</Phone>
    <Email>charlotte.lee@example.com</Email>
    <Password>password!23</Password>
    <FullAddress>Ha'Atsmaut Blvd, Bat Yam, Israel</FullAddress>
    <Latitude>32.0224</Latitude>
    <Longitude>34.8125</Longitude>
    <Role>VOLUNTEER</Role>
    <Active>true</Active>
    <MaxDistance>25.380071433180497</MaxDistance>
    <TypeOfDistance>AERIALDISTANCE</TypeOfDistance>
  </Volunteer>
  <Volunteer>
    <Id>391446774</Id>
    <FullName>Lucas Perez</FullName>
    <Phone>052-7654321</Phone>
    <Email>lucas.perez@example.com</Email>
    <Password>123qwerty</Password>
    <FullAddress>Ha-Rav Nisanbaum St, Bat Yam, Israel</FullAddress>
    <Latitude>32.033</Latitude>
    <Longitude>34.6435</Longitude>
    <Role>VOLUNTEER</Role>
    <Active>true</Active>
    <MaxDistance>21.597288015051536</MaxDistance>
    <TypeOfDistance>AERIALDISTANCE</TypeOfDistance>
  </Volunteer>
  <Volunteer>
    <Id>387356506</Id>
    <FullName>Amelia Rodriguez</FullName>
    <Phone>053-6543210</Phone>
    <Email>amelia.rodriguez@example.com</Email>
    <Password>letmein2023</Password>
    <FullAddress>Hanamal, Ashdod, Israel</FullAddress>
    <Latitude>31.8011</Latitude>
    <Longitude>34.6487</Longitude>
    <Role>VOLUNTEER</Role>
    <Active>true</Active>
    <MaxDistance>23.940890471010007</MaxDistance>
    <TypeOfDistance>AERIALDISTANCE</TypeOfDistance>
  </Volunteer>
  <Volunteer>
    <Id>348308939</Id>
    <FullName>Henry Green</FullName>
    <Phone>054-5432109</Phone>
    <Email>henry.green@example.com</Email>
    <Password>strongpass22</Password>
    <FullAddress>Sderot Menachem Begin, Ashdod, Israel</FullAddress>
    <Latitude>31.801</Latitude>
    <Longitude>34.6491</Longitude>
    <Role>VOLUNTEER</Role>
    <Active>true</Active>
    <MaxDistance>20.499526317838637</MaxDistance>
    <TypeOfDistance>AERIALDISTANCE</TypeOfDistance>
  </Volunteer>
  <Volunteer>
    <Id>259145342</Id>
    <FullName>Aria Hall</FullName>
    <Phone>055-4321098</Phone>
    <Email>aria.hall@example.com</Email>
    <Password>qwertz123</Password>
    <FullAddress>Moshe Dayan Avenue, Ashdod, Israel</FullAddress>
    <Latitude>31.803</Latitude>
    <Longitude>34.5717</Longitude>
    <Role>VOLUNTEER</Role>
    <Active>true</Active>
    <MaxDistance>34.7869130746742</MaxDistance>
    <TypeOfDistance>AERIALDISTANCE</TypeOfDistance>
  </Volunteer>
  <Volunteer>
    <Id>293632558</Id>
    <FullName>Samuel Harris</FullName>
    <Phone>056-3210987</Phone>
    <Email>samuel.harris@example.com</Email>
    <Password>abcpassword</Password>
    <FullAddress>David Ben Gurion Avenue, Ashkelon, Israel</FullAddress>
    <Latitude>31.6672</Latitude>
    <Longitude>34.5732</Longitude>
    <Role>VOLUNTEER</Role>
    <Active>true</Active>
    <MaxDistance>39.76425649026099</MaxDistance>
    <TypeOfDistance>AERIALDISTANCE</TypeOfDistance>
  </Volunteer>
  <Volunteer>
    <Id>227153853</Id>
    <FullName>Ella Carter</FullName>
    <Phone>057-2109876</Phone>
    <Email>ella.carter@example.com</Email>
    <Password>mypassword@2024</Password>
    <FullAddress>Arye Tagar St, Ashkelon, Israel</FullAddress>
    <Latitude>31.6685</Latitude>
    <Longitude>34.9162</Longitude>
    <Role>VOLUNTEER</Role>
    <Active>true</Active>
    <MaxDistance>22.81194768792816</MaxDistance>
    <TypeOfDistance>AERIALDISTANCE</TypeOfDistance>
  </Volunteer>
  <Volunteer>
    <Id>299686222</Id>
    <FullName>David Walker</FullName>
    <Phone>058-1098765</Phone>
    <Email>david.walker@example.com</Email>
    <Password>passw0rd123</Password>
    <FullAddress>Sderot Rothschild, Hadera, Israel</FullAddress>
    <Latitude>32.4332</Latitude>
    <Longitude>34.922</Longitude>
    <Role>VOLUNTEER</Role>
    <Active>true</Active>
    <MaxDistance>12.216553132525885</MaxDistance>
    <TypeOfDistance>AERIALDISTANCE</TypeOfDistance>
  </Volunteer>
  <Volunteer>
    <Id>229885709</Id>
    <FullName>Avery Thompson</FullName>
    <Phone>059-0987654</Phone>
    <Email>avery.thompson@example.com</Email>
    <Password>iloveyou1234</Password>
    <FullAddress>Hasela St, Atlit, Israel</FullAddress>
    <Latitude>32.6374</Latitude>
    <Longitude>34.8944</Longitude>
    <Role>VOLUNTEER</Role>
    <Active>true</Active>
    <MaxDistance>26.202676423649336</MaxDistance>
    <TypeOfDistance>AERIALDISTANCE</TypeOfDistance>
  </Volunteer>
  <Volunteer>
    <Id>281707798</Id>
    <FullName>Oliver Collins</FullName>
    <Phone>050-9876543</Phone>
    <Email>oliver.collins@example.com</Email>
    <Password>testpassword12</Password>
    <FullAddress>Herzl St, Lod, Israel</FullAddress>
    <Latitude>31.9515</Latitude>
    <Longitude>34.8961</Longitude>
    <Role>VOLUNTEER</Role>
    <Active>true</Active>
    <MaxDistance>11.682696107820817</MaxDistance>
    <TypeOfDistance>AERIALDISTANCE</TypeOfDistance>
  </Volunteer>
  <Volunteer>
    <Id>383304929</Id>
    <FullName>Sophie White</FullName>
    <Phone>051-8765432</Phone>
    <Email>sophie.white@example.com</Email>
    <Password>openai123</Password>
    <FullAddress>Dani Mass St, Lod, Israel</FullAddress>
    <Latitude>31.9511</Latitude>
    <Longitude>34.87</Longitude>
    <Role>VOLUNTEER</Role>
    <Active>true</Active>
    <MaxDistance>29.53293665862287</MaxDistance>
    <TypeOfDistance>AERIALDISTANCE</TypeOfDistance>
  </Volunteer>
  <Volunteer>
    <Id>355492853</Id>
    <FullName>William Wright</FullName>
    <Phone>052-7654321</Phone>
    <Email>william.wright@example.com</Email>
    <Password>adminsecure</Password>
    <FullAddress>David Remez St, Or Yehuda, Israel</FullAddress>
    <Latitude>31.9615</Latitude>
    <Longitude>34.839</Longitude>
    <Role>VOLUNTEER</Role>
    <Active>true</Active>
    <MaxDistance>13.37242519417346</MaxDistance>
    <TypeOfDistance>AERIALDISTANCE</TypeOfDistance>
  </Volunteer>
  <Volunteer>
    <Id>250381700</Id>
    <FullName>Megan Nelson</FullName>
    <Phone>053-6543210</Phone>
    <Email>megan.nelson@example.com</Email>
    <Password>securepassword01</Password>
    <FullAddress>Hagdud Haivri St, Ra'anana, Israel</FullAddress>
    <Latitude>32.185</Latitude>
    <Longitude>34.8462</Longitude>
    <Role>VOLUNTEER</Role>
    <Active>true</Active>
    <MaxDistance>29.503043565791526</MaxDistance>
    <TypeOfDistance>AERIALDISTANCE</TypeOfDistance>
  </Volunteer>
  <Volunteer>
    <Id>334305875</Id>
    <FullName>Jack Brown</FullName>
    <Phone>054-5432109</Phone>
    <Email>jack.brown@example.com</Email>
    <Password>bestpassword!</Password>
    <FullAddress>Haahot Haya Oster St Ramat Gan, Ramat Gan, Israel</FullAddress>
    <Latitude>32.0685</Latitude>
    <Longitude>34.8408</Longitude>
    <Role>VOLUNTEER</Role>
    <Active>true</Active>
    <MaxDistance>22.834742245319543</MaxDistance>
    <TypeOfDistance>AERIALDISTANCE</TypeOfDistance>
  </Volunteer>
  <Volunteer>
    <Id>350866288</Id>
    <FullName>Madison Roberts</FullName>
    <Phone>055-4321098</Phone>
    <Email>madison.roberts@example.com</Email>
    <Password>chatrocks</Password>
    <FullAddress>Ahuza St, Ra'Anana, Israel</FullAddress>
    <Latitude>32.183</Latitude>
    <Longitude>34.8522</Longitude>
    <Role>VOLUNTEER</Role>
    <Active>true</Active>
    <MaxDistance>29.89554031650065</MaxDistance>
    <TypeOfDistance>AERIALDISTANCE</TypeOfDistance>
  </Volunteer>
  <Volunteer>
    <Id>266251373</Id>
    <FullName>Jacob Carter</FullName>
    <Phone>056-3210987</Phone>
    <Email>jacob.carter@example.com</Email>
    <Password>strongpass1</Password>
    <FullAddress>Keren Hayesod St, Ra'Anana, Israel</FullAddress>
    <Latitude>32.1797</Latitude>
    <Longitude>34.8555</Longitude>
    <Role>VOLUNTEER</Role>
    <Active>true</Active>
    <MaxDistance>29.148590724227034</MaxDistance>
    <TypeOfDistance>AERIALDISTANCE</TypeOfDistance>
  </Volunteer>
  <Volunteer>
    <Id>306216880</Id>
    <FullName>Sophia Brooks</FullName>
    <Phone>057-2109876</Phone>
    <Email>sophia.brooks@example.com</Email>
    <Password>newpassword2024</Password>
    <FullAddress>Derech Jaffa, Tel Aviv-Yafo, Israel</FullAddress>
    <Latitude>32.0628</Latitude>
    <Longitude>34.8689</Longitude>
    <Role>VOLUNTEER</Role>
    <Active>true</Active>
    <MaxDistance>12.3614126851749</MaxDistance>
    <TypeOfDistance>AERIALDISTANCE</TypeOfDistance>
  </Volunteer>
  <Volunteer>
    <Id>347711109</Id>
    <FullName>Jackson Scott</FullName>
    <Phone>058-1098765</Phone>
    <Email>jackson.scott@example.com</Email>
    <Password>password01@</Password>
    <FullAddress>Menachem Begin, Petaẖ Tiqwa, Israel</FullAddress>
    <Latitude>32.091</Latitude>
    <Longitude>34.8803</Longitude>
    <Role>VOLUNTEER</Role>
    <Active>true</Active>
    <MaxDistance>14.34485890704762</MaxDistance>
    <TypeOfDistance>AERIALDISTANCE</TypeOfDistance>
  </Volunteer>
  <Volunteer>
    <Id>288899966</Id>
    <FullName>Grace Turner</FullName>
    <Phone>059-0987654</Phone>
    <Email>grace.turner@example.com</Email>
    <Password>welcome@123</Password>
    <FullAddress>Hamalbim, Jerusalem, Israel</FullAddress>
    <Latitude>31.7712</Latitude>
    <Longitude>34.9445</Longitude>
    <Role>VOLUNTEER</Role>
    <Active>true</Active>
    <MaxDistance>22.43452445630163</MaxDistance>
    <TypeOfDistance>AERIALDISTANCE</TypeOfDistance>
  </Volunteer>
  <Volunteer>
    <Id>312227407</Id>
    <FullName>Mason Miller</FullName>
    <Phone>050-9876543</Phone>
    <Email>mason.miller@example.com</Email>
    <Password>1234password</Password>
    <FullAddress>Em Hamoshavot Rd, Petah Tikva, Israel</FullAddress>
    <Latitude>32.0955</Latitude>
    <Longitude>34.8324</Longitude>
    <Role>VOLUNTEER</Role>
    <Active>true</Active>
    <MaxDistance>16.765636172202143</MaxDistance>
    <TypeOfDistance>AERIALDISTANCE</TypeOfDistance>
  </Volunteer>
  <Volunteer>
    <Id>260912587</Id>
    <FullName>Liam King</FullName>
    <Phone>051-8765432</Phone>
    <Email>liam.king@example.com</Email>
    <Password>secret1234</Password>
    <FullAddress>Weizmann St, Kfar Saba, Israel</FullAddress>
    <Latitude>32.1665</Latitude>
    <Longitude>34.842</Longitude>
    <Role>VOLUNTEER</Role>
    <Active>true</Active>
    <MaxDistance>34.977298799912504</MaxDistance>
    <TypeOfDistance>AERIALDISTANCE</TypeOfDistance>
  </Volunteer>
  <Volunteer>
    <Id>316941126</Id>
    <FullName>Charlotte Walker</FullName>
    <Phone>052-7654321</Phone>
    <Email>charlotte.walker@example.com</Email>
    <Password>tbot2023</Password>
    <FullAddress>Ha-Palmakh St, Ra'Anana, Israel</FullAddress>
    <Latitude>32.1915</Latitude>
    <Longitude>34.8402</Longitude>
    <Role>VOLUNTEER</Role>
    <Active>true</Active>
    <MaxDistance>10.569787957129964</MaxDistance>
    <TypeOfDistance>AERIALDISTANCE</TypeOfDistance>
  </Volunteer>
  <Volunteer>
    <Id>332828284</Id>
    <FullName>Daniel Evans</FullName>
    <Phone>053-6543210</Phone>
    <Email>daniel.evans@example.com</Email>
    <Password>securechatgpt</Password>
    <FullAddress>Haenergia St, Be'Er Sheva, Israel</FullAddress>
    <Latitude>31.252</Latitude>
    <Longitude>34.8425</Longitude>
    <Role>VOLUNTEER</Role>
    <Active>true</Active>
    <MaxDistance>10.694129182677303</MaxDistance>
    <TypeOfDistance>AERIALDISTANCE</TypeOfDistance>
  </Volunteer>
  <Volunteer>
    <Id>376577758</Id>
    <FullName>Ella Green</FullName>
    <Phone>054-5432109</Phone>
    <Email>ella.green@example.com</Email>
    <Password>pass1234</Password>
    <FullAddress>Ha-Palmakh St, Be'Er Sheva, Israel</FullAddress>
    <Latitude>31.2571</Latitude>
    <Longitude>35.5318</Longitude>
    <Role>VOLUNTEER</Role>
    <Active>true</Active>
    <MaxDistance>33.69572630249122</MaxDistance>
    <TypeOfDistance>AERIALDISTANCE</TypeOfDistance>
  </Volunteer>
  <Volunteer>
    <Id>340767943</Id>
    <FullName>Oliver Evans</FullName>
    <Phone>055-4321098</Phone>
    <Email>oliver.evans@example.com</Email>
    <Password>qwertz!234</Password>
    <FullAddress>Harav Kook St, Hertsliya, Israel</FullAddress>
    <Latitude>32.1653</Latitude>
    <Longitude>35.5779</Longitude>
    <Role>VOLUNTEER</Role>
    <Active>true</Active>
    <MaxDistance>23.719393132574854</MaxDistance>
    <TypeOfDistance>AERIALDISTANCE</TypeOfDistance>
  </Volunteer>
  <Volunteer>
    <Id>277811177</Id>
    <FullName>Harper Lewis</FullName>
    <Phone>056-3210987</Phone>
    <Email>harper.lewis@example.com</Email>
    <Password>supersecurepass</Password>
    <FullAddress>Yehuda Halevi St, Hertsliya, Israel</FullAddress>
    <Latitude>32.1668</Latitude>
    <Longitude>34.7918</Longitude>
    <Role>VOLUNTEER</Role>
    <Active>true</Active>
    <MaxDistance>28.100942134918963</MaxDistance>
    <TypeOfDistance>AERIALDISTANCE</TypeOfDistance>
  </Volunteer>
  <Volunteer>
    <Id>215492091</Id>
    <FullName>Benjamin Lee</FullName>
    <Phone>057-2109876</Phone>
    <Email>benjamin.lee@example.com</Email>
    <Password>access1234</Password>
    <FullAddress>Ha-Galil St, Ra'Anana, Israel</FullAddress>
    <Latitude>32.1918</Latitude>
    <Longitude>34.681</Longitude>
    <Role>VOLUNTEER</Role>
    <Active>true</Active>
    <MaxDistance>32.15400146766065</MaxDistance>
    <TypeOfDistance>AERIALDISTANCE</TypeOfDistance>
  </Volunteer>
  <Volunteer>
    <Id>226665264</Id>
    <FullName>Victoria Allen</FullName>
    <Phone>058-1098765</Phone>
    <Email>victoria.allen@example.com</Email>
    <Password>strong2024pass</Password>
    <FullAddress>Hayam, Tiberias, Israel</FullAddress>
    <Latitude>32.7921</Latitude>
    <Longitude>35.5318</Longitude>
    <Role>VOLUNTEER</Role>
    <Active>true</Active>
    <MaxDistance>10.855453025782456</MaxDistance>
    <TypeOfDistance>AERIALDISTANCE</TypeOfDistance>
  </Volunteer>
  <Volunteer>
    <Id>349087609</Id>
    <FullName>James White</FullName>
    <Phone>059-0987654</Phone>
    <Email>james.white@example.com</Email>
    <Password>ilovechatgpt123</Password>
    <FullAddress>Tel Hai St, Qiryat Shemona, Israel</FullAddress>
    <Latitude>33.2851</Latitude>
    <Longitude>35.5779</Longitude>
    <Role>VOLUNTEER</Role>
    <Active>true</Active>
    <MaxDistance>38.58990062280978</MaxDistance>
    <TypeOfDistance>AERIALDISTANCE</TypeOfDistance>
  </Volunteer>
  <Volunteer>
    <Id>228479694</Id>
    <FullName>Natalie Scott</FullName>
    <Phone>054-0988684</Phone>
    <Email>natalie.scott@example.com</Email>
    <Password>admin1password</Password>
    <FullAddress>Sderot Haatsma'Ut, Kiryat Gat, Israel</FullAddress>
    <Latitude>31.612</Latitude>
    <Longitude>34.7918</Longitude>
    <Role>VOLUNTEER</Role>
    <Active>true</Active>
    <MaxDistance>18.184376418904662</MaxDistance>
    <TypeOfDistance>AERIALDISTANCE</TypeOfDistance>
  </Volunteer>
  <Volunteer>
    <Id>377541443</Id>
    <FullName>Evan Phillips</FullName>
    <Phone>052-9989654</Phone>
    <Email>evan.phillips@example.com</Email>
    <Password>testpass1234</Password>
    <FullAddress>HaDekel, Netivot, Israel</FullAddress>
    <Latitude>31.401</Latitude>
    <Longitude>34.681</Longitude>
    <Role>VOLUNTEER</Role>
    <Active>true</Active>
    <MaxDistance>13.662411407147985</MaxDistance>
    <TypeOfDistance>AERIALDISTANCE</TypeOfDistance>
  </Volunteer>
</ArrayOfVolunteer>